X,Y,OBJECTID,SERVICECODE,SERVICECODEDESCRIPTION,SERVICETYPECODEDESCRIPTION,ORGANIZATIONACRONYM,SERVICECALLCOUNT,ADDDATE,RESOLUTIONDATE,SERVICEDUEDATE,SERVICEORDERDATE,INSPECTIONFLAG,INSPECTIONDATE,INSPECTORNAME,SERVICEORDERSTATUS,STATUS_CODE,SERVICEREQUESTID,PRIORITY,STREETADDRESS,XCOORD,YCOORD,LATITUDE,LONGITUDE,CITY,STATE,ZIPCODE,MARADDRESSREPOSITORYID,WARD
-77.020571184157248,38.938995089434741,466,S0311,Rodent Inspection and Treatment,DOH- Department Of Health,DOH,1,2018-07-05T13:59:54.000Z,2018-07-13T14:34:38.000Z,2018-07-25T13:59:00.000Z,2018-07-05T13:59:54.000Z,Y,2018-07-13T14:33:00.000Z,,CLOSED,CLOSED,18-00355249,STANDARD,543 RANDOLPH STREET NW,398216.75,141233.42,38.93898763,-77.02056889,WASHINGTON,DC,20011,247726,4
-77.010467714670568,38.914276259800701,467,S0311,Rodent Inspection and Treatment,DOH- Department Of Health,DOH,1,2018-06-26T15:04:37.000Z,2018-07-18T15:29:56.000Z,2018-07-17T15:04:00.000Z,2018-06-26T15:04:37.000Z,Y,2018-07-18T15:29:00.000Z,,CLOSED,CLOSED,18-00336045,STANDARD,39 S STREET NW,399092.37,138489.27,38.9142688,-77.01046543,WASHINGTON,DC,20001,227081,5
-77.034417296460731,38.96595566355829,468,S0311,Rodent Inspection and Treatment,DOH- Department Of Health,DOH,1,2018-07-16T15:36:07.000Z,2018-07-19T08:19:48.000Z,2018-08-03T15:36:00.000Z,2018-07-16T15:36:07.000Z,Y,2018-07-19T08:22:00.000Z,,CLOSED,CLOSED,18-00379231,STANDARD,1426 SHERIDAN STREET NW,397017.47,144226.65,38.9659482,-77.034415,WASHINGTON,DC,20011,257949,4
-77.035724794456527,38.928034638215721,469,S0311,Rodent Inspection and Treatment,DOH- Department Of Health,DOH,1,2018-07-05T14:01:53.000Z,2018-07-11T07:14:34.000Z,2018-07-25T14:01:00.000Z,2018-07-05T14:01:53.000Z,Y,2018-07-11T07:14:00.000Z,,CLOSED,CLOSED,18-00355259,STANDARD,3035 15TH STREET NW,396902.51,140017.12,38.92802685,-77.0357225,WASHINGTON,DC,20009,234374,1
-76.995047102418866,38.853735049618848,470,S0311,Rodent Inspection and Treatment,DOH- Department Of Health,DOH,1,2018-06-22T20:08:16.000Z,2018-06-22T20:08:56.000Z,2018-07-13T17:00:00.000Z,2018-06-22T20:08:16.000Z,Y,2018-06-22T20:08:00.000Z,,CLOSED,CLOSED,18-00329251,STANDARD,2720 MARTIN LUTHER KING JR AVENUE SE,400430.11,131768.69,38.8537276,-76.99504482,WASHINGTON,DC,20032,301360,8
-77.020375811774556,38.93987937787135,471,S0311,Rodent Inspection and Treatment,DOH- Department Of Health,DOH,1,2018-07-22T14:06:38.000Z,,2018-08-09T17:00:00.000Z,2018-07-22T14:06:38.000Z,Y,,,OPEN,OPEN,18-00391549,STANDARD,500  - 599 BLOCK OF SHEPHERD STREET NW,398233.71,141331.58,38.9398715824593,-77.0203735194547,WASHINGTON,DC,20011,804452,4
-77.016399423472365,38.974756846095076,472,S0311,Rodent Inspection and Treatment,DOH- Department Of Health,DOH,1,2018-07-03T17:00:47.000Z,2018-07-13T14:31:08.000Z,2018-07-24T17:00:00.000Z,2018-07-03T17:00:47.000Z,Y,2018-07-13T14:31:00.000Z,,CLOSED,CLOSED,18-00352233,STANDARD,300 CARROLL STREET NW,398579.14,145203.23,38.97474938,-77.01639713,WASHINGTON,DC,20012,284548,4
-76.986107599787218,38.892203991915999,473,S0311,Rodent Inspection and Treatment,DOH- Department Of Health,DOH,1,2018-07-03T16:59:37.000Z,,2018-07-24T16:59:00.000Z,2018-07-03T16:59:37.000Z,Y,,,OPEN,OPEN,18-00352226,STANDARD,1356 CONSTITUTION AVENUE NE,401205.41,136039.11,38.89219654,-76.98610532,WASHINGTON,DC,20002,66076,6
-76.924949533041314,38.901025486150353,474,S0311,Rodent Inspection and Treatment,DOH- Department Of Health,DOH,1,2018-07-11T09:18:29.000Z,2018-07-13T13:35:45.000Z,2018-07-31T09:18:00.000Z,2018-07-11T09:18:29.000Z,Y,2018-07-13T13:35:00.000Z,,CLOSED,CLOSED,18-00367252,STANDARD,836 DIVISION AVENUE NE,406510.27,137020.95,38.90101803,-76.92494727,WASHINGTON,DC,20019,81240,7
-77.00274392098838,38.91502772159415,475,S0311,Rodent Inspection and Treatment,DOH- Department Of Health,DOH,1,2018-07-05T12:07:11.000Z,2018-07-17T11:53:46.000Z,2018-07-25T12:07:00.000Z,2018-07-05T12:07:11.000Z,Y,2018-07-17T11:53:00.000Z,,CLOSED,CLOSED,18-00354666,STANDARD,222 SEATON PLACE NE,399762.23,138572.64,38.91502026,-77.00274164,WASHINGTON,DC,20002,49992,5
-76.992121062204589,38.843357346505378,476,S0311,Rodent Inspection and Treatment,DOH- Department Of Health,DOH,1,2018-06-26T12:36:50.000Z,2018-07-12T08:54:40.000Z,2018-07-17T12:36:00.000Z,2018-06-26T12:36:50.000Z,Y,2018-07-12T08:54:00.000Z,,CLOSED,CLOSED,18-00335323,STANDARD,3214 10TH PLACE SE,400684.19,130616.71,38.8433499,-76.99211878,WASHINGTON,DC,20032,38346,8
-77.018713218013204,38.91443134454007,477,S0311,Rodent Inspection and Treatment,DOH- Department Of Health,DOH,1,2018-06-25T06:48:19.000Z,2018-07-03T14:27:47.000Z,2018-07-13T17:00:00.000Z,2018-06-25T06:48:19.000Z,Y,2018-07-03T14:27:00.000Z,,CLOSED,CLOSED,18-00331057,STANDARD,1803 5TH STREET NW,398377.27,138506.6,38.91442389,-77.01871093,WASHINGTON,DC,20001,238759,6
-76.929197098599303,38.908055375625175,478,S0311,Rodent Inspection and Treatment,DOH- Department Of Health,DOH,1,2018-07-11T16:05:33.000Z,2018-07-18T15:39:49.000Z,2018-07-31T16:05:00.000Z,2018-07-11T16:05:33.000Z,Y,2018-07-18T15:39:00.000Z,,CLOSED,CLOSED,18-00369157,STANDARD,1314 EASTERN AVENUE NE,406141.22,137801.03,38.90804792,-76.92919484,WASHINGTON,DC,20019,68269,7
-77.03016201237098,38.897569820991386,479,S0311,Rodent Inspection and Treatment,DOH- Department Of Health,DOH,1,2018-07-18T09:30:30.000Z,2018-07-19T08:42:46.000Z,2018-08-07T09:30:00.000Z,2018-07-18T09:30:30.000Z,Y,2018-07-19T08:42:00.000Z,,CLOSED,CLOSED,18-00383306,STANDARD,1309 F STREET NW,397383.74,136635.1,38.89756237,-77.03015972,WASHINGTON,DC,20004,240660,2
-77.01916097265439,38.881477866940301,480,S0311,Rodent Inspection and Treatment,DOH- Department Of Health,DOH,1,2018-07-12T09:40:57.000Z,,2018-08-01T09:40:00.000Z,2018-07-12T09:40:57.000Z,Y,,,OPEN,OPEN,18-00370328,STANDARD,507 G STREET SW,398337.67,134848.51,38.88147042,-77.01915868,WASHINGTON,DC,20024,13846,6
-77.062916076198761,38.906979334839797,481,S0311,Rodent Inspection and Treatment,DOH- Department Of Health,DOH,1,2018-07-18T10:37:48.000Z,,2018-08-07T10:37:00.000Z,2018-07-18T10:37:48.000Z,Y,,,OPEN,OPEN,18-00383597,STANDARD,1303 WISCONSIN AVENUE NW,394543.15,137681.08,38.90697188,-77.06291377,WASHINGTON,DC,20007,223446,2
-76.98141199349098,38.870941917984069,482,S0311,Rodent Inspection and Treatment,DOH- Department Of Health,DOH,1,2018-06-27T15:04:23.000Z,2018-07-12T08:40:09.000Z,2018-07-18T15:04:00.000Z,2018-06-27T15:04:23.000Z,Y,2018-07-12T08:40:00.000Z,,CLOSED,CLOSED,18-00338880,STANDARD,1620 Q STREET SE,401613.25,133678.93,38.87093447,-76.98140972,WASHINGTON,DC,20020,59499,8
-77.03304563541451,38.935768248192979,483,S0311,Rodent Inspection and Treatment,DOH- Department Of Health,DOH,1,2018-06-25T21:23:44.000Z,2018-06-27T15:05:15.000Z,2018-07-16T17:00:00.000Z,2018-06-25T21:23:44.000Z,Y,2018-06-27T15:05:00.000Z,,CLOSED,CLOSED,18-00333779,STANDARD,3548 14TH STREET NW,397135.13,140875.53,38.93576079,-77.03304334,WASHINGTON,DC,20010,284752,1
-77.032209262159924,38.910139892768946,484,S0311,Rodent Inspection and Treatment,DOH- Department Of Health,DOH,1,2018-07-06T10:43:04.000Z,2018-07-13T14:42:38.000Z,2018-07-26T10:43:00.000Z,2018-07-06T10:43:04.000Z,Y,2018-07-13T14:42:00.000Z,,CLOSED,CLOSED,18-00357266,STANDARD,1512 14TH STREET NW,397206.64,138030.54,38.91013244,-77.03220697,WASHINGTON,DC,20005,302006,2
-77.005720657648453,38.912037746266776,485,S0311,Rodent Inspection and Treatment,DOH- Department Of Health,DOH,1,2018-07-04T10:35:26.000Z,,2018-07-24T17:00:00.000Z,2018-07-04T10:35:26.000Z,Y,,,OPEN,OPEN,18-00352838,STANDARD,120 QUINCY PLACE NE,399504.05,138240.74,38.91203029,-77.00571837,WASHINGTON,DC,20002,72252,5
-76.959098760682039,38.894346244550121,486,S0311,Rodent Inspection and Treatment,DOH- Department Of Health,DOH,1,2018-06-28T08:47:33.000Z,2018-07-11T16:16:38.000Z,2018-07-18T17:00:00.000Z,2018-06-28T08:47:33.000Z,Y,2018-07-11T16:16:00.000Z,,CLOSED,CLOSED,18-00340114,STANDARD,3310 CLAY PLACE NE,403548.41,136277.62,38.89433879,-76.95909649,WASHINGTON,DC,20019,36766,7
-77.025658313557756,38.924896559487102,487,S0311,Rodent Inspection and Treatment,DOH- Department Of Health,DOH,1,2018-06-26T01:58:24.000Z,2018-06-27T15:11:17.000Z,2018-07-16T17:00:00.000Z,2018-06-26T01:58:24.000Z,Y,2018-06-27T15:11:00.000Z,,CLOSED,CLOSED,18-00333895,STANDARD,FAIRMONT STREET NW AND SHERMAN AVENUE NW,397775.27413989,139668.47302304,38.9248891005926,-77.0256560206293,WASHINGTON,DC,20001,905397,1
-77.007076470187627,38.915354451951025,488,S0311,Rodent Inspection and Treatment,DOH- Department Of Health,DOH,1,2018-07-04T10:51:40.000Z,,2018-07-24T17:00:00.000Z,2018-07-04T10:51:40.000Z,Y,,,OPEN,OPEN,18-00352853,STANDARD,49 T STREET NE,399386.49,138608.93,38.915347,-77.00707418,WASHINGTON,DC,20002,16507,5
-77.023995091631548,38.924278014025738,489,S0311,Rodent Inspection and Treatment,DOH- Department Of Health,DOH,1,2018-07-05T14:20:40.000Z,2018-07-12T07:07:05.000Z,2018-07-25T14:20:00.000Z,2018-07-05T14:20:40.000Z,Y,2018-07-12T07:07:00.000Z,,CLOSED,CLOSED,18-00355354,STANDARD,803 EUCLID STREET NW,397919.48,139599.77,38.92427056,-77.0239928,WASHINGTON,DC,20001,232397,1
-76.996937156378891,38.897560883353279,490,S0311,Rodent Inspection and Treatment,DOH- Department Of Health,DOH,1,2018-07-18T09:33:29.000Z,,2018-08-07T09:33:00.000Z,2018-07-18T09:33:29.000Z,Y,,,OPEN,OPEN,18-00383323,STANDARD,644 F STREET NE,400265.89,136633.68,38.89755343,-76.99693487,WASHINGTON,DC,20002,1823,6
-77.016808408098356,38.94685938663936,491,S0311,Rodent Inspection and Treatment,DOH- Department Of Health,DOH,1,2018-07-19T13:49:21.000Z,,2018-08-08T13:49:00.000Z,2018-07-19T13:49:21.000Z,Y,,,OPEN,OPEN,18-00387101,STANDARD,4612 NEW HAMPSHIRE AVENUE NW,398543.13,142106.36,38.94685192,-77.01680612,WASHINGTON,DC,20011,243946,4
-77.030024704019098,38.927119285299817,492,S0311,Rodent Inspection and Treatment,DOH- Department Of Health,DOH,1,2018-07-12T21:51:33.000Z,,2018-08-01T17:00:00.000Z,2018-07-12T21:51:33.000Z,Y,,,OPEN,OPEN,18-00372670,STANDARD,2910 13TH STREET NW,397396.73,139915.33,38.92711183,-77.03002241,WASHINGTON,DC,20009,231564,1
-76.994540953922154,38.858820104622282,493,S0311,Rodent Inspection and Treatment,DOH- Department Of Health,DOH,1,2018-06-25T15:37:23.000Z,2018-06-27T15:34:22.000Z,2018-07-16T15:37:00.000Z,2018-06-25T15:37:23.000Z,Y,2018-06-27T15:34:00.000Z,,CLOSED,CLOSED,18-00333127,STANDARD,2515 STANTON ROAD SE,400474.01,132333.17,38.85881266,-76.99453867,WASHINGTON,DC,20020,46472,8
-77.001184150460517,38.885915522735054,494,S0311,Rodent Inspection and Treatment,DOH- Department Of Health,DOH,1,2018-07-20T17:44:23.000Z,,2018-08-09T17:00:00.000Z,2018-07-20T17:44:23.000Z,Y,,,OPEN,OPEN,18-00390346,STANDARD,321 C STREET SE,399897.46,135340.95,38.88590807,-77.00118187,WASHINGTON,DC,20003,38637,6
-77.017432783559002,38.943328948331306,495,S0311,Rodent Inspection and Treatment,DOH- Department Of Health,DOH,1,2018-07-06T19:00:49.000Z,2018-07-20T11:01:18.000Z,2018-07-26T17:00:00.000Z,2018-07-06T19:00:49.000Z,Y,2018-07-20T11:01:00.000Z,,CLOSED,CLOSED,18-00359123,STANDARD,4300 4TH STREET NW,398488.93,141714.46,38.94332149,-77.01743049,WASHINGTON,DC,20011,248097,4
-77.025400015781855,38.904434422264373,496,S0311,Rodent Inspection and Treatment,DOH- Department Of Health,DOH,1,2018-07-09T11:30:51.000Z,2018-07-18T14:00:14.000Z,2018-07-27T11:30:00.000Z,2018-07-09T11:30:51.000Z,Y,2018-07-18T14:00:00.000Z,,CLOSED,CLOSED,18-00362019,STANDARD,933 L STREET NW,397797.04,137397,38.90442697,-77.02539772,WASHINGTON,DC,20001,239808,2
-77.005475625100942,38.917820839416336,497,S0311,Rodent Inspection and Treatment,DOH- Department Of Health,DOH,1,2018-07-18T16:09:46.000Z,,2018-08-07T16:09:00.000Z,2018-07-18T16:09:46.000Z,Y,,,OPEN,OPEN,18-00385091,STANDARD,131 RHODE ISLAND AVENUE NE,399525.34,138882.71,38.91781338,-77.00547334,WASHINGTON,DC,20002,68496,5
-76.980984833230679,38.930570248440205,498,S0311,Rodent Inspection and Treatment,DOH- Department Of Health,DOH,1,2018-07-11T16:27:58.000Z,,2018-07-31T16:27:00.000Z,2018-07-11T16:27:58.000Z,Y,,,OPEN,OPEN,18-00369236,STANDARD,3200 - 3299 BLOCK OF 17TH STREET NE,401648.94,140298.16,38.9305624534347,-76.9809825537504,WASHINGTON,DC,20018,807173,5
-77.008371711855162,38.966427416951511,499,S0311,Rodent Inspection and Treatment,DOH- Department Of Health,DOH,1,2018-07-17T11:15:30.000Z,2018-07-20T08:14:18.000Z,2018-08-06T11:15:00.000Z,2018-07-17T11:15:30.000Z,Y,2018-07-20T08:16:00.000Z,,CLOSED,CLOSED,18-00380998,STANDARD,1 - 42 BLOCK OF SHERIDAN STREET NE,399274.68,144278.49,38.9664196157441,-77.0083694216489,WASHINGTON,DC,20011,815144,4
-77.019660884676298,38.93900713705959,500,S0311,Rodent Inspection and Treatment,DOH- Department Of Health,DOH,1,2018-06-25T11:25:12.000Z,2018-07-02T13:13:54.000Z,2018-07-16T11:25:00.000Z,2018-06-25T11:25:12.000Z,Y,2018-07-02T13:13:00.000Z,,CLOSED,CLOSED,18-00331957,STANDARD,521 RANDOLPH STREET NW,398295.67,141234.74,38.93899968,-77.01965859,WASHINGTON,DC,20011,247710,4
-76.983582418516193,38.868051084673276,501,S0311,Rodent Inspection and Treatment,DOH- Department Of Health,DOH,1,2018-06-25T12:35:18.000Z,2018-06-28T08:32:30.000Z,2018-07-16T12:35:00.000Z,2018-06-25T12:35:18.000Z,Y,2018-06-28T08:31:00.000Z,,CLOSED,CLOSED,18-00332283,STANDARD,1501 S STREET SE,401424.96,133357.99,38.86804364,-76.98358014,WASHINGTON,DC,20020,62619,8
-77.026930969712652,38.931687703842414,502,S0311,Rodent Inspection and Treatment,DOH- Department Of Health,DOH,1,2018-06-25T12:36:16.000Z,2018-06-27T15:00:28.000Z,2018-07-16T12:36:00.000Z,2018-06-25T12:36:16.000Z,Y,2018-06-27T15:00:00.000Z,,CLOSED,CLOSED,18-00332286,STANDARD,3336 SHERMAN AVENUE NW,397665.14,140422.38,38.93168024,-77.02692868,WASHINGTON,DC,20010,231029,1
-77.017423801030901,38.943390025862769,503,S0311,Rodent Inspection and Treatment,DOH- Department Of Health,DOH,1,2018-06-25T16:31:58.000Z,2018-07-05T09:10:50.000Z,2018-07-16T16:31:00.000Z,2018-06-25T16:31:58.000Z,Y,2018-07-05T09:10:00.000Z,,CLOSED,CLOSED,18-00333294,STANDARD,4302 4TH STREET NW,398489.71,141721.24,38.94338256,-77.01742151,WASHINGTON,DC,20011,248119,4
-77.019912099748254,38.89981852396572,504,S0311,Rodent Inspection and Treatment,DOH- Department Of Health,DOH,1,2018-07-17T17:53:40.000Z,,2018-08-06T17:00:00.000Z,2018-07-17T17:53:40.000Z,Y,,,OPEN,OPEN,18-00382565,STANDARD,,398272.94156435,136884.48006046,38.8998110699141,-77.0199098101149,,,20001,907392,2
-77.020976473517777,38.941234929601407,505,S0311,Rodent Inspection and Treatment,DOH- Department Of Health,DOH,1,2018-07-18T20:18:08.000Z,,2018-08-07T17:00:00.000Z,2018-07-18T20:18:08.000Z,Y,,,OPEN,OPEN,18-00385520,STANDARD,4106 NEW HAMPSHIRE AVENUE NW,398181.67,141482.07,38.94122747,-77.02097418,WASHINGTON,DC,20011,247613,4
-77.008749429837437,38.923597229350129,506,S0311,Rodent Inspection and Treatment,DOH- Department Of Health,DOH,1,2018-06-25T14:14:36.000Z,2018-07-06T12:20:23.000Z,2018-07-16T14:14:00.000Z,2018-06-25T14:14:36.000Z,Y,2018-07-06T12:20:00.000Z,,CLOSED,CLOSED,18-00332795,STANDARD,2535 NORTH CAPITOL STREET NE,399241.49,139523.96,38.92358977,-77.00874714,WASHINGTON,DC,20002,46198,5
-76.983038375973095,38.868704657161651,507,S0311,Rodent Inspection and Treatment,DOH- Department Of Health,DOH,1,2018-07-02T13:49:15.000Z,2018-07-12T08:37:56.000Z,2018-07-23T13:49:00.000Z,2018-07-02T13:49:15.000Z,Y,2018-07-12T08:37:00.000Z,,CLOSED,CLOSED,18-00348457,STANDARD,1461 RIDGE PLACE SE,401472.16,133430.55,38.86869721,-76.9830361,WASHINGTON,DC,20020,62964,8
-77.00847196858011,38.913883567988613,508,S0311,Rodent Inspection and Treatment,DOH- Department Of Health,DOH,1,2018-06-25T16:53:55.000Z,2018-07-06T12:37:13.000Z,2018-07-16T16:53:00.000Z,2018-06-25T16:53:55.000Z,Y,2018-07-06T12:37:00.000Z,,CLOSED,CLOSED,18-00333390,STANDARD,11 S STREET NE,399265.45,138445.66,38.91387611,-77.00846968,WASHINGTON,DC,20002,74511,5
-77.012155208166703,38.917007603818476,509,S0311,Rodent Inspection and Treatment,DOH- Department Of Health,DOH,1,2018-07-12T09:34:45.000Z,,2018-08-01T09:34:00.000Z,2018-07-12T09:34:45.000Z,Y,,,OPEN,OPEN,18-00370299,STANDARD,,398946.05999698,138792.49001423,38.9170001460109,-77.0121529198628,,,20001,904721,5
-76.95175638351499,38.906729758830608,510,S0311,Rodent Inspection and Treatment,DOH- Department Of Health,DOH,1,2018-06-29T10:22:32.000Z,2018-07-06T12:15:35.000Z,2018-07-20T10:22:00.000Z,2018-06-29T10:22:32.000Z,Y,2018-07-06T12:15:00.000Z,,CLOSED,CLOSED,18-00343373,STANDARD,3582 HAYES STREET NE,404184.64,137652.6,38.9067223,-76.95175411,WASHINGTON,DC,20019,295255,7
-76.994964231681479,38.896732585932277,511,S0311,Rodent Inspection and Treatment,DOH- Department Of Health,DOH,1,2018-06-25T13:57:00.000Z,2018-07-06T13:51:51.000Z,2018-07-16T13:57:00.000Z,2018-06-25T13:57:00.000Z,Y,2018-07-06T13:51:00.000Z,,CLOSED,CLOSED,18-00332708,STANDARD,,400437.04,136541.74,38.8967247982704,-76.9949619499125,,,20002,,6
-77.027295403812104,38.919588366669402,512,S0311,Rodent Inspection and Treatment,DOH- Department Of Health,DOH,1,2018-07-10T09:08:10.000Z,2018-07-12T14:58:53.000Z,2018-07-30T09:08:00.000Z,2018-07-10T09:08:10.000Z,Y,2018-07-12T14:59:00.000Z,,CLOSED,CLOSED,18-00364267,STANDARD,2212 11TH STREET NW,397633.14,139079.26,38.91958091,-77.02729311,WASHINGTON,DC,20001,238974,1
-77.046170223313226,38.932318123829546,513,S0311,Rodent Inspection and Treatment,DOH- Department Of Health,DOH,1,2018-07-09T14:11:26.000Z,2018-07-12T15:05:38.000Z,2018-07-27T14:11:00.000Z,2018-07-09T14:11:26.000Z,Y,2018-07-12T15:06:00.000Z,,CLOSED,CLOSED,18-00362742,STANDARD,3225 ADAMS MILL ROAD NW,395997.03,140493.03,38.93231067,-77.04616792,WASHINGTON,DC,20010,233417,1
-77.028760805048833,38.953886755100704,514,S0311,Rodent Inspection and Treatment,DOH- Department Of Health,DOH,1,2018-07-13T11:28:32.000Z,,2018-08-02T11:28:00.000Z,2018-07-13T11:28:32.000Z,Y,,,OPEN,OPEN,18-00373574,STANDARD,1226 INGRAHAM STREET NW,397507.26,142886.72,38.95387929,-77.02875851,WASHINGTON,DC,20011,252961,4
-76.991115058909003,38.946479027332458,515,S0311,Rodent Inspection and Treatment,DOH- Department Of Health,DOH,1,2018-07-13T11:29:18.000Z,,2018-08-02T11:29:00.000Z,2018-07-13T11:29:18.000Z,Y,,,OPEN,OPEN,18-00373578,STANDARD,1042 BUCHANAN STREET NE,400770.41,142064.04,38.94647156,-76.99111278,WASHINGTON,DC,20017,74853,5
-77.004064626271827,38.916832052443901,516,S0311,Rodent Inspection and Treatment,DOH- Department Of Health,DOH,1,2018-07-03T20:38:57.000Z,2018-07-11T08:58:05.000Z,2018-07-24T17:00:00.000Z,2018-07-03T20:38:57.000Z,Y,2018-07-11T08:57:00.000Z,,CLOSED,CLOSED,18-00352544,STANDARD,169 U STREET NE,399647.7,138772.94,38.9168246,-77.00406234,WASHINGTON,DC,20002,58106,5
-77.03497047372943,38.936571228544302,517,S0311,Rodent Inspection and Treatment,DOH- Department Of Health,DOH,1,2018-07-17T11:57:28.000Z,2018-07-20T07:20:01.000Z,2018-08-06T11:57:00.000Z,2018-07-17T11:57:28.000Z,Y,2018-07-20T07:20:00.000Z,,CLOSED,CLOSED,18-00381183,STANDARD,1510 SPRING PLACE NW,396968.28,140964.73,38.93656377,-77.03496818,WASHINGTON,DC,20010,234794,1
-77.018251037427419,38.91518775756645,518,S0311,Rodent Inspection and Treatment,DOH- Department Of Health,DOH,1,2018-07-18T11:03:01.000Z,,2018-08-07T11:03:00.000Z,2018-07-18T11:03:01.000Z,Y,,,OPEN,OPEN,18-00383693,STANDARD,1835 5TH STREET NW,398417.37,138590.56,38.9151803,-77.01824875,WASHINGTON,DC,20001,229928,1
-76.993739329374961,38.958174096474373,519,S0311,Rodent Inspection and Treatment,DOH- Department Of Health,DOH,1,2018-07-19T10:00:16.000Z,,2018-08-08T10:00:00.000Z,2018-07-19T10:00:16.000Z,Y,,,OPEN,OPEN,18-00386160,STANDARD,830 OGLETHORPE STREET NE,400542.83,143362.28,38.95816663,-76.99373704,WASHINGTON,DC,20011,81081,4
-77.02468009728652,38.905946538409822,520,S0311,Rodent Inspection and Treatment,DOH- Department Of Health,DOH,1,2018-06-29T08:38:46.000Z,2018-07-06T11:38:41.000Z,2018-07-19T17:00:00.000Z,2018-06-29T08:38:46.000Z,Y,2018-07-06T11:38:00.000Z,,CLOSED,CLOSED,18-00342799,STANDARD,915 M STREET NW,397859.53,137564.84,38.90593908,-77.02467781,WASHINGTON,DC,20001,239776,2
-77.008715586853256,38.913720679319326,521,S0311,Rodent Inspection and Treatment,DOH- Department Of Health,DOH,1,2018-06-29T08:39:25.000Z,2018-07-13T14:04:59.000Z,2018-07-19T17:00:00.000Z,2018-06-29T08:39:25.000Z,Y,2018-07-13T14:04:00.000Z,,CLOSED,CLOSED,18-00342800,STANDARD,1737 NORTH CAPITOL STREET NE,399244.32,138427.58,38.91371322,-77.0087133,WASHINGTON,DC,20002,56771,5
-76.993927490077212,38.887937121996202,522,S0311,Rodent Inspection and Treatment,DOH- Department Of Health,DOH,1,2018-06-26T10:24:24.000Z,2018-07-10T12:52:39.000Z,2018-07-17T10:24:00.000Z,2018-06-26T10:24:24.000Z,Y,2018-07-10T12:52:00.000Z,,CLOSED,CLOSED,18-00334675,STANDARD,107 9TH STREET SE,400527.04,135565.38,38.88792967,-76.99392521,WASHINGTON,DC,20003,304254,6
-77.038937269475312,38.927462394750016,523,S0311,Rodent Inspection and Treatment,DOH- Department Of Health,DOH,1,2018-07-19T13:40:38.000Z,,2018-08-08T13:40:00.000Z,2018-07-19T13:40:38.000Z,Y,,,OPEN,OPEN,18-00387072,STANDARD,1649 HARVARD STREET NW,396623.93,139953.71,38.92745494,-77.03893497,WASHINGTON,DC,20009,236386,1
-77.028494962959783,38.907058291535108,524,S0311,Rodent Inspection and Treatment,DOH- Department Of Health,DOH,1,2018-07-03T10:27:57.000Z,2018-07-18T15:17:39.000Z,2018-07-24T10:27:00.000Z,2018-07-03T10:27:57.000Z,Y,2018-07-18T15:17:00.000Z,,CLOSED,CLOSED,18-00350605,STANDARD,1200 N STREET NW,397528.68,137688.35,38.90705084,-77.02849267,WASHINGTON,DC,20005,226383,2
-77.035228404675834,38.910952024454673,525,S0311,Rodent Inspection and Treatment,DOH- Department Of Health,DOH,1,2018-07-16T12:01:08.000Z,,2018-08-03T12:01:00.000Z,2018-07-16T12:01:08.000Z,Y,,,OPEN,OPEN,18-00378226,STANDARD,1512 Q STREET NW,396944.82,138120.79,38.91094457,-77.03522611,WASHINGTON,DC,20009,225633,2
-77.023061834125429,38.936158722229159,526,S0311,Rodent Inspection and Treatment,DOH- Department Of Health,DOH,1,2018-07-18T11:52:32.000Z,,2018-08-07T11:52:00.000Z,2018-07-18T11:52:32.000Z,Y,,,OPEN,OPEN,18-00383945,STANDARD,749 QUEBEC PLACE NW,398000.74,140918.61,38.93615126,-77.02305954,WASHINGTON,DC,20010,228422,1
-77.025400015781855,38.904434422264373,527,S0311,Rodent Inspection and Treatment,DOH- Department Of Health,DOH,1,2018-07-09T11:02:15.000Z,2018-07-18T13:48:37.000Z,2018-07-27T11:02:00.000Z,2018-07-09T11:02:15.000Z,Y,2018-07-18T13:48:00.000Z,,CLOSED,CLOSED,18-00361888,STANDARD,933 L STREET NW,397797.04,137397,38.90442697,-77.02539772,WASHINGTON,DC,20001,239808,2
-77.031313520168624,38.923557418038719,528,S0311,Rodent Inspection and Treatment,DOH- Department Of Health,DOH,1,2018-07-05T17:09:05.000Z,2018-07-11T07:21:51.000Z,2018-07-25T17:00:00.000Z,2018-07-05T17:09:05.000Z,Y,2018-07-11T07:22:00.000Z,,CLOSED,CLOSED,18-00356053,STANDARD,1354 EUCLID STREET NW,397284.84,139519.97,38.92354996,-77.03131123,WASHINGTON,DC,20009,284003,1
-77.028677362814818,38.91022675268519,529,S0311,Rodent Inspection and Treatment,DOH- Department Of Health,DOH,1,2018-06-29T23:03:39.000Z,2018-07-06T11:14:32.000Z,2018-07-20T17:00:00.000Z,2018-06-29T23:03:39.000Z,Y,2018-07-06T11:14:00.000Z,,CLOSED,CLOSED,18-00345577,STANDARD,1209 RHODE ISLAND AVENUE NW,397512.97,138040.08,38.9102193,-77.02867507,WASHINGTON,DC,20005,225342,2
-77.028484881279752,38.924539598379127,530,S0311,Rodent Inspection and Treatment,DOH- Department Of Health,DOH,1,2018-07-03T16:45:39.000Z,2018-07-12T07:05:03.000Z,2018-07-24T16:45:00.000Z,2018-07-03T16:45:39.000Z,Y,2018-07-12T07:05:00.000Z,,CLOSED,CLOSED,18-00352195,STANDARD,1216 FAIRMONT STREET NW,397530.16,139628.92,38.92453214,-77.02848259,WASHINGTON,DC,20009,231878,1
-76.995513160343407,38.928204775013789,531,S0311,Rodent Inspection and Treatment,DOH- Department Of Health,DOH,1,2018-07-02T09:52:21.000Z,2018-07-18T15:21:49.000Z,2018-07-23T09:52:00.000Z,2018-07-02T09:52:21.000Z,Y,2018-07-18T15:21:00.000Z,,CLOSED,CLOSED,18-00347539,STANDARD,713 IRVING STREET NE,400389.25,140035.41,38.92819732,-76.99551088,WASHINGTON,DC,20017,77144,5
-77.002651271201984,38.882451864491408,532,S0311,Rodent Inspection and Treatment,DOH- Department Of Health,DOH,1,2018-07-02T09:52:22.000Z,2018-07-17T11:43:48.000Z,2018-07-23T09:52:00.000Z,2018-07-02T09:52:22.000Z,Y,2018-07-17T11:43:00.000Z,,CLOSED,CLOSED,18-00347540,STANDARD,220 SOUTH CAROLINA AVENUE SE,399770.16,134956.46,38.88244441,-77.00264899,WASHINGTON,DC,20003,50736,6
-77.023629593723868,38.94258557684136,533,S0311,Rodent Inspection and Treatment,DOH- Department Of Health,DOH,1,2018-07-14T13:03:09.000Z,,2018-08-02T17:00:00.000Z,2018-07-14T13:03:09.000Z,Y,,,OPEN,OPEN,18-00375742,STANDARD,4224 8TH STREET NW,397951.7,141632.06,38.94257812,-77.0236273,WASHINGTON,DC,20011,252457,4
-76.940139347230698,38.901113169778085,534,S0311,Rodent Inspection and Treatment,DOH- Department Of Health,DOH,1,2018-07-16T12:38:29.000Z,2018-07-18T15:41:30.000Z,2018-08-03T12:38:00.000Z,2018-07-16T12:38:29.000Z,Y,2018-07-18T15:41:00.000Z,,CLOSED,CLOSED,18-00378376,STANDARD,4302 NANNIE HELEN BURROUGHS AVENUE NE,405192.66,137029.71,38.90110571,-76.94013708,WASHINGTON,DC,20019,24004,7
-77.029141848261077,38.918282073280388,535,S0311,Rodent Inspection and Treatment,DOH- Department Of Health,DOH,1,2018-07-12T09:36:40.000Z,2018-07-17T07:13:08.000Z,2018-08-01T09:36:00.000Z,2018-07-12T09:36:40.000Z,Y,2018-07-17T07:13:00.000Z,,CLOSED,CLOSED,18-00370312,STANDARD,1223 V STREET NW,397472.97,138934.3,38.91827462,-77.02913955,WASHINGTON,DC,20009,283954,1
-77.012436509756213,38.943807746644545,536,S0311,Rodent Inspection and Treatment,DOH- Department Of Health,DOH,1,2018-07-12T10:36:53.000Z,,2018-08-01T10:36:00.000Z,2018-07-12T10:36:53.000Z,Y,,,OPEN,OPEN,18-00370600,STANDARD,19 ROCK CREEK CHURCH ROAD NW,398922.07,141767.54,38.94380028,-77.01243422,WASHINGTON,DC,20011,244492,4
-77.08300405608729,38.909927834911258,537,S0311,Rodent Inspection and Treatment,DOH- Department Of Health,DOH,1,2018-07-17T17:44:11.000Z,,2018-08-06T17:00:00.000Z,2018-07-17T17:44:11.000Z,Y,,,OPEN,OPEN,18-00382554,STANDARD,1537 FOXHALL ROAD NW,392801.11,138009.78,38.90992038,-77.08300175,WASHINGTON,DC,20007,271042,3
-77.03389498169804,38.915355965476259,538,S0311,Rodent Inspection and Treatment,DOH- Department Of Health,DOH,1,2018-06-27T13:30:19.000Z,2018-07-03T09:20:25.000Z,2018-07-18T13:30:00.000Z,2018-06-27T13:30:19.000Z,Y,2018-07-03T09:18:00.000Z,,CLOSED,CLOSED,18-00338465,STANDARD,1452 T STREET NW,397060.65,138609.62,38.91534851,-77.03389269,WASHINGTON,DC,20009,240025,2
-76.98575879456925,38.89393734076495,539,S0311,Rodent Inspection and Treatment,DOH- Department Of Health,DOH,1,2018-07-01T14:36:04.000Z,2018-07-19T10:30:26.000Z,2018-07-20T17:00:00.000Z,2018-07-01T14:36:04.000Z,Y,2018-07-19T10:30:00.000Z,,CLOSED,CLOSED,18-00346757,STANDARD,312 14TH STREET NE,401235.64,136231.53,38.89392989,-76.98575652,WASHINGTON,DC,20002,40149,6
-77.072512512408082,38.914919133421527,540,S0311,Rodent Inspection and Treatment,DOH- Department Of Health,DOH,1,2018-07-20T08:49:45.000Z,,2018-08-08T17:00:00.000Z,2018-07-20T08:49:45.000Z,Y,,,OPEN,OPEN,18-00388451,STANDARD,1811 37TH STREET NW,393711.5,138563.08,38.91491168,-77.07251021,WASHINGTON,DC,20007,270520,2
-77.000297243577847,38.916398822003096,541,S0311,Rodent Inspection and Treatment,DOH- Department Of Health,DOH,1,2018-07-09T19:32:52.000Z,,2018-07-27T17:00:00.000Z,2018-07-09T19:32:52.000Z,Y,,,OPEN,OPEN,18-00363594,STANDARD,1937 4TH STREET NE,399974.42,138724.84,38.91639136,-77.00029496,WASHINGTON,DC,20002,53464,5
-77.019641220781949,38.945086294944986,542,S0311,Rodent Inspection and Treatment,DOH- Department Of Health,DOH,1,2018-07-10T12:07:49.000Z,2018-07-13T09:40:41.000Z,2018-07-30T12:07:00.000Z,2018-07-10T12:07:49.000Z,Y,2018-07-13T09:43:00.000Z,,CLOSED,CLOSED,18-00365231,STANDARD,504 ALLISON STREET NW,398297.52,141909.58,38.94507883,-77.01963893,WASHINGTON,DC,20011,247449,4
-77.00777231762963,38.965862190801772,543,S0311,Rodent Inspection and Treatment,DOH- Department Of Health,DOH,1,2018-07-08T11:10:36.000Z,,2018-07-26T17:00:00.000Z,2018-07-08T11:10:36.000Z,Y,,,OPEN,OPEN,18-00360361,STANDARD,6207 KANSAS AVENUE NE,399326.62,144215.74,38.96585472,-77.00777003,WASHINGTON,DC,20011,3761,4
-77.002341126214915,38.903583889023807,544,S0311,Rodent Inspection and Treatment,DOH- Department Of Health,DOH,1,2018-07-16T14:54:07.000Z,,2018-08-03T14:54:00.000Z,2018-07-16T14:54:07.000Z,Y,,,OPEN,OPEN,18-00379022,STANDARD,225 L STREET NE,399797.13,137302.28,38.90357643,-77.00233884,WASHINGTON,DC,20002,311976,6
-77.000141544154019,38.900009486305606,545,S0311,Rodent Inspection and Treatment,DOH- Department Of Health,DOH,1,2018-07-12T10:38:15.000Z,,2018-08-01T10:38:00.000Z,2018-07-12T10:38:15.000Z,Y,,,OPEN,OPEN,18-00370610,STANDARD,409 H STREET NE,399987.92,136905.49,38.90000203,-77.00013926,WASHINGTON,DC,20002,27156,6
-76.974045704007423,38.859868901172739,546,S0311,Rodent Inspection and Treatment,DOH- Department Of Health,DOH,1,2018-07-07T17:57:16.000Z,2018-07-12T08:43:23.000Z,2018-07-26T17:00:00.000Z,2018-07-07T17:57:16.000Z,Y,2018-07-12T08:43:00.000Z,,CLOSED,CLOSED,18-00360051,STANDARD,2480 SKYLAND PLACE SE,402252.84,132449.9,38.85986145,-76.97404343,WASHINGTON,DC,20020,46810,8
-77.000826353893459,38.922864366766532,547,S0311,Rodent Inspection and Treatment,DOH- Department Of Health,DOH,1,2018-07-05T11:11:31.000Z,2018-07-18T16:04:50.000Z,2018-07-25T11:11:00.000Z,2018-07-05T11:11:31.000Z,Y,2018-07-18T16:04:00.000Z,,CLOSED,CLOSED,18-00354421,STANDARD,2510 4TH STREET NE,399928.54,139442.57,38.92285691,-77.00082407,WASHINGTON,DC,20002,46403,5
-77.017610089713088,38.946638295450256,548,S0311,Rodent Inspection and Treatment,DOH- Department Of Health,DOH,1,2018-07-18T16:23:17.000Z,,2018-08-07T16:23:00.000Z,2018-07-18T16:23:17.000Z,Y,,,OPEN,OPEN,18-00385146,STANDARD,4604 4TH STREET NW,398473.63,142081.83,38.94663083,-77.0176078,WASHINGTON,DC,20011,248286,4
-77.023426880938743,38.915783636622798,549,S0311,Rodent Inspection and Treatment,DOH- Department Of Health,DOH,1,2018-06-22T14:39:33.000Z,2018-06-25T15:02:09.000Z,2018-07-13T14:39:00.000Z,2018-06-22T14:39:33.000Z,Y,2018-06-25T15:02:00.000Z,,CLOSED,CLOSED,18-00328115,STANDARD,811 T STREET NW,397968.51,138656.81,38.91577618,-77.02342459,WASHINGTON,DC,20001,239840,1
-77.013448790147336,38.949626173985145,550,S0311,Rodent Inspection and Treatment,DOH- Department Of Health,DOH,1,2018-06-22T15:57:45.000Z,2018-07-06T11:52:56.000Z,2018-07-13T15:57:00.000Z,2018-06-22T15:57:45.000Z,Y,2018-07-06T11:52:00.000Z,,CLOSED,CLOSED,18-00328385,STANDARD,108 EMERSON STREET NW,398834.41,142413.45,38.94961871,-77.0134465,WASHINGTON,DC,20011,243572,4
-77.022621598743413,38.957664639756274,551,S0311,Rodent Inspection and Treatment,DOH- Department Of Health,DOH,1,2018-07-09T08:31:32.000Z,,2018-07-26T17:00:00.000Z,2018-07-09T08:31:32.000Z,Y,,,OPEN,OPEN,18-00361132,STANDARD,703 LONGFELLOW STREET NW,398039.5,143305.95,38.95765718,-77.0226193,WASHINGTON,DC,20011,250307,4
-76.988155644539859,38.944654227157031,552,S0311,Rodent Inspection and Treatment,DOH- Department Of Health,DOH,1,2018-07-05T11:06:43.000Z,2018-07-13T14:54:52.000Z,2018-07-25T11:06:00.000Z,2018-07-05T11:06:43.000Z,Y,2018-07-13T14:54:00.000Z,,CLOSED,CLOSED,18-00354389,STANDARD,4509 SARGENT ROAD NE,401026.98,141861.5,38.94464676,-76.98815336,WASHINGTON,DC,20017,20603,5
-76.994343055528887,38.832116634523246,553,S0311,Rodent Inspection and Treatment,DOH- Department Of Health,DOH,1,2018-06-26T12:10:52.000Z,2018-07-12T08:51:51.000Z,2018-07-17T12:10:00.000Z,2018-06-26T12:10:52.000Z,Y,2018-07-12T08:51:00.000Z,,CLOSED,CLOSED,18-00335200,STANDARD,800 YUMA STREET SE,400491.37,129368.9,38.83210886,-76.99434078,WASHINGTON,DC,20032,156205,8
-76.981982947772536,38.885689019974961,554,S0311,Rodent Inspection and Treatment,DOH- Department Of Health,DOH,1,2018-07-13T10:56:21.000Z,2018-07-20T11:25:11.000Z,2018-08-02T10:56:00.000Z,2018-07-13T10:56:21.000Z,Y,2018-07-20T11:23:00.000Z,,CLOSED,CLOSED,18-00373432,STANDARD,260 16TH STREET SE,401563.38,135315.96,38.88568157,-76.98198067,WASHINGTON,DC,20003,46136,6
-77.029920202654438,38.912789494484571,555,S0311,Rodent Inspection and Treatment,DOH- Department Of Health,DOH,1,2018-07-03T15:39:02.000Z,2018-07-13T15:09:18.000Z,2018-07-24T15:39:00.000Z,2018-07-03T15:39:02.000Z,Y,2018-07-13T15:09:00.000Z,,CLOSED,CLOSED,18-00351928,STANDARD,1303 R STREET NW,397405.27,138324.6,38.91278204,-77.02991791,WASHINGTON,DC,20009,240523,2
-76.956341967282029,38.894040944049692,556,S0311,Rodent Inspection and Treatment,DOH- Department Of Health,DOH,1,2018-07-17T13:47:59.000Z,,2018-08-06T13:47:00.000Z,2018-07-17T13:47:59.000Z,Y,,,OPEN,OPEN,18-00381670,STANDARD,315 34TH PLACE NE,403787.58,136243.84,38.89403349,-76.9563397,WASHINGTON,DC,20019,39374,7
-77.013041003919028,38.913162480234284,557,S0311,Rodent Inspection and Treatment,DOH- Department Of Health,DOH,1,2018-06-26T13:38:26.000Z,2018-07-18T14:59:44.000Z,2018-07-17T13:38:00.000Z,2018-06-26T13:38:26.000Z,Y,2018-07-18T15:00:00.000Z,,CLOSED,CLOSED,18-00335634,STANDARD,132 RANDOLPH PLACE NW,398869.18,138365.66,38.91315502,-77.01303872,WASHINGTON,DC,20001,226882,5
-77.019536701096001,38.89497118576989,558,S0311,Rodent Inspection and Treatment,DOH- Department Of Health,DOH,1,2018-07-17T15:02:54.000Z,,2018-08-06T15:02:00.000Z,2018-07-17T15:02:54.000Z,Y,,,OPEN,OPEN,18-00382009,STANDARD,515 D STREET NW,398305.39,136346.38,38.89496373,-77.01953441,WASHINGTON,DC,20001,238954,2
-76.981545609448787,38.9045861661128,559,S0311,Rodent Inspection and Treatment,DOH- Department Of Health,DOH,1,2018-07-11T14:18:57.000Z,2018-07-17T12:42:47.000Z,2018-07-31T14:18:00.000Z,2018-07-11T14:18:57.000Z,Y,2018-07-17T12:42:00.000Z,,CLOSED,CLOSED,18-00368705,STANDARD,,401600.9,137413.7,38.9045783763672,-76.98154333138,,,20002,,5
-77.065906100482493,38.905865965646434,560,S0311,Rodent Inspection and Treatment,DOH- Department Of Health,DOH,1,2018-07-13T16:42:46.000Z,,2018-08-02T16:42:00.000Z,2018-07-13T16:42:46.000Z,Y,,,OPEN,OPEN,18-00374832,STANDARD,1227 33RD STREET NW,394283.72,137557.67,38.90585851,-77.0659038,WASHINGTON,DC,20007,271959,2
-77.027852402711531,38.911999613924401,561,S0311,Rodent Inspection and Treatment,DOH- Department Of Health,DOH,1,2018-07-13T17:46:11.000Z,,2018-08-02T17:00:00.000Z,2018-07-13T17:46:11.000Z,Y,,,OPEN,OPEN,18-00374966,STANDARD,1627 12TH STREET NW,397584.58,138236.86,38.91199216,-77.02785011,WASHINGTON,DC,20009,239068,2
-77.0090531792479,38.910802555558035,562,S0311,Rodent Inspection and Treatment,DOH- Department Of Health,DOH,1,2018-06-29T02:21:50.000Z,2018-07-13T13:59:14.000Z,2018-07-19T17:00:00.000Z,2018-06-29T02:21:50.000Z,Y,2018-07-13T13:59:00.000Z,,CLOSED,CLOSED,18-00342612,STANDARD,,399215.00943722,138103.64706959,38.9107950988861,-77.0090508922747,,,20002,906444,5
-77.021550085062032,38.936599246378556,563,S0311,Rodent Inspection and Treatment,DOH- Department Of Health,DOH,1,2018-06-22T09:15:22.000Z,2018-06-25T15:25:02.000Z,2018-07-13T09:15:00.000Z,2018-06-22T09:15:22.000Z,Y,2018-06-25T15:25:00.000Z,,CLOSED,CLOSED,18-00326746,STANDARD,3650 WARDER STREET NW,398131.82,140967.48,38.93659179,-77.02154779,WASHINGTON,DC,20010,228441,1
-77.025154158847457,38.933683799991847,564,S0311,Rodent Inspection and Treatment,DOH- Department Of Health,DOH,1,2018-07-10T12:13:56.000Z,2018-07-12T14:50:12.000Z,2018-07-30T12:13:00.000Z,2018-07-10T12:13:56.000Z,Y,2018-07-12T14:50:00.000Z,,CLOSED,CLOSED,18-00365265,STANDARD,745 NEWTON PLACE NW,397819.26,140643.92,38.93367634,-77.02515187,WASHINGTON,DC,20010,232275,1
-77.019688927732801,38.88100781140087,565,S0311,Rodent Inspection and Treatment,DOH- Department Of Health,DOH,1,2018-07-15T12:18:01.000Z,2018-07-20T11:22:54.000Z,2018-08-02T17:00:00.000Z,2018-07-15T12:18:01.000Z,Y,2018-07-20T11:22:00.000Z,,CLOSED,CLOSED,18-00376489,STANDARD,704 6TH STREET SW,398291.85,134796.34,38.88100036,-77.01968664,WASHINGTON,DC,20024,167,6
-77.026245572668358,38.917351928838549,566,S0311,Rodent Inspection and Treatment,DOH- Department Of Health,DOH,1,2018-07-15T23:03:20.000Z,2018-07-18T15:21:49.000Z,2018-08-02T17:00:00.000Z,2018-07-15T23:03:20.000Z,Y,2018-07-18T15:22:00.000Z,,CLOSED,CLOSED,18-00376857,STANDARD,2006 10TH STREET NW,397724.11,138830.97,38.91734447,-77.02624328,WASHINGTON,DC,20001,239171,1
-76.979306354105347,38.894615697192116,567,S0311,Rodent Inspection and Treatment,DOH- Department Of Health,DOH,1,2018-06-27T16:09:24.000Z,,2018-07-18T16:09:00.000Z,2018-06-27T16:09:24.000Z,Y,,,OPEN,OPEN,18-00339152,STANDARD,1737 D STREET NE,401795.38,136306.94,38.89460824,-76.97930408,WASHINGTON,DC,20002,56759,6
-77.024791595698389,38.95904822907211,568,S0311,Rodent Inspection and Treatment,DOH- Department Of Health,DOH,1,2018-06-29T08:21:39.000Z,2018-07-06T12:09:56.000Z,2018-07-19T17:00:00.000Z,2018-06-29T08:21:39.000Z,Y,2018-07-06T12:09:00.000Z,,CLOSED,CLOSED,18-00342755,STANDARD,810 MARIETTA PLACE NW,397851.46,143459.59,38.95904076,-77.0247893,WASHINGTON,DC,20011,254347,4
-76.998133724306882,38.893831354466855,569,S0311,Rodent Inspection and Treatment,DOH- Department Of Health,DOH,1,2018-06-27T22:30:12.000Z,2018-07-06T13:45:03.000Z,2018-07-18T17:00:00.000Z,2018-06-27T22:30:12.000Z,Y,2018-07-06T13:45:00.000Z,,CLOSED,CLOSED,18-00339742,STANDARD,609 MARYLAND AVENUE NE,400162.1,136219.67,38.8938239,-76.99813144,WASHINGTON,DC,20002,151060,6
-77.002547806075725,38.912390174778963,570,S0311,Rodent Inspection and Treatment,DOH- Department Of Health,DOH,1,2018-07-17T13:43:48.000Z,,2018-08-06T13:43:00.000Z,2018-07-17T13:43:48.000Z,Y,,,OPEN,OPEN,18-00381653,STANDARD,231 R STREET NE,399779.23,138279.85,38.91238272,-77.00254552,WASHINGTON,DC,20002,48711,5
-76.979541880933496,38.935538715961286,571,S0311,Rodent Inspection and Treatment,DOH- Department Of Health,DOH,1,2018-07-09T19:04:04.000Z,2018-07-18T15:59:52.000Z,2018-07-27T17:00:00.000Z,2018-07-09T19:04:04.000Z,Y,2018-07-18T15:59:00.000Z,,CLOSED,CLOSED,18-00363570,STANDARD,3713 18TH STREET NE,401773.93,140849.73,38.93553125,-76.9795396,WASHINGTON,DC,20018,31577,5
-76.954570398154388,38.894503298790958,572,S0311,Rodent Inspection and Treatment,DOH- Department Of Health,DOH,1,2018-07-01T17:02:49.000Z,2018-07-06T12:18:08.000Z,2018-07-20T17:00:00.000Z,2018-07-01T17:02:49.000Z,Y,2018-07-06T12:18:00.000Z,,CLOSED,CLOSED,18-00346833,STANDARD,331 36TH STREET NE,403941.24,136295.24,38.89449584,-76.95456813,WASHINGTON,DC,20019,36945,7
-77.008319971921452,38.911688967249866,573,S0311,Rodent Inspection and Treatment,DOH- Department Of Health,DOH,1,2018-07-12T15:58:00.000Z,2018-07-20T11:15:29.000Z,2018-08-01T15:58:00.000Z,2018-07-12T15:58:00.000Z,Y,2018-07-20T11:15:00.000Z,,CLOSED,CLOSED,18-00372071,STANDARD,11 QUINCY PLACE NE,399278.61,138202.04,38.91168151,-77.00831769,WASHINGTON,DC,20002,74508,5
-77.024465245417559,38.960545740751769,574,S0311,Rodent Inspection and Treatment,DOH- Department Of Health,DOH,1,2018-07-03T12:27:38.000Z,2018-07-13T14:32:32.000Z,2018-07-24T12:27:00.000Z,2018-07-03T12:27:38.000Z,Y,2018-07-13T14:32:00.000Z,,CLOSED,CLOSED,18-00351134,STANDARD,5808 8TH STREET NW,397879.79,143625.82,38.96053828,-77.02446295,WASHINGTON,DC,20011,254273,4
-76.993859762517715,38.843181605989031,575,S0311,Rodent Inspection and Treatment,DOH- Department Of Health,DOH,1,2018-06-26T15:19:25.000Z,2018-07-12T08:49:54.000Z,2018-07-17T15:19:00.000Z,2018-06-26T15:19:25.000Z,Y,2018-07-12T08:49:00.000Z,,CLOSED,CLOSED,18-00336108,STANDARD,3210 WHEELER ROAD SE,400533.25,130597.19,38.84317416,-76.99385748,WASHINGTON,DC,20032,38481,8
-76.993524638769301,38.843572554497285,576,S0311,Rodent Inspection and Treatment,DOH- Department Of Health,DOH,1,2018-06-26T15:21:02.000Z,2018-07-12T08:46:18.000Z,2018-07-17T15:21:00.000Z,2018-06-26T15:21:02.000Z,Y,2018-07-12T08:46:00.000Z,,CLOSED,CLOSED,18-00336118,STANDARD,819 ALABAMA AVENUE SE,400562.34,130640.59,38.84356511,-76.99352236,WASHINGTON,DC,20032,80556,8
-77.010467714670568,38.914276259800701,577,S0311,Rodent Inspection and Treatment,DOH- Department Of Health,DOH,1,2018-06-26T15:22:24.000Z,2018-07-18T15:43:33.000Z,2018-07-17T15:22:00.000Z,2018-06-26T15:22:24.000Z,Y,2018-07-18T15:43:00.000Z,,CLOSED,CLOSED,18-00336125,STANDARD,39 S STREET NW,399092.37,138489.27,38.9142688,-77.01046543,WASHINGTON,DC,20001,227081,5
-77.00357528927286,38.903738080750742,578,S0311,Rodent Inspection and Treatment,DOH- Department Of Health,DOH,1,2018-07-12T18:42:32.000Z,2018-07-20T11:35:54.000Z,2018-08-01T17:00:00.000Z,2018-07-12T18:42:32.000Z,Y,2018-07-20T11:35:00.000Z,,CLOSED,CLOSED,18-00372430,STANDARD,,399690.07999767,137319.39999686,38.9037306252995,-77.0035730044114,,,20002,900768,6
-76.993505270354873,38.902016188121046,579,S0311,Rodent Inspection and Treatment,DOH- Department Of Health,DOH,1,2018-07-12T18:44:50.000Z,2018-07-20T11:28:09.000Z,2018-08-01T17:00:00.000Z,2018-07-12T18:44:50.000Z,Y,2018-07-20T11:27:00.000Z,,CLOSED,CLOSED,18-00372432,STANDARD,923 9TH STREET NE,400563.56,137128.27,38.90200873,-76.99350299,WASHINGTON,DC,20002,82617,6
-76.98974852059402,38.900870055798293,580,S0311,Rodent Inspection and Treatment,DOH- Department Of Health,DOH,1,2018-06-29T08:54:59.000Z,2018-07-06T13:13:23.000Z,2018-07-19T17:00:00.000Z,2018-06-29T08:54:59.000Z,Y,2018-07-06T13:13:00.000Z,,CLOSED,CLOSED,18-00342839,STANDARD,1208 WYLIE STREET NE,400889.44,137001.07,38.9008626,-76.98974624,WASHINGTON,DC,20002,71936,6
-77.019275251037129,38.94314281802469,581,S0311,Rodent Inspection and Treatment,DOH- Department Of Health,DOH,1,2018-07-12T09:16:59.000Z,2018-07-20T08:39:37.000Z,2018-08-01T09:16:00.000Z,2018-07-12T09:16:59.000Z,Y,2018-07-20T08:42:00.000Z,,CLOSED,CLOSED,18-00370205,STANDARD,GRANT CIRCLE,398329.2,141693.83,38.94313536,-77.01927296,WASHINGTON,DC,20011,294261,4
-77.014756659337522,38.914560460233382,582,S0311,Rodent Inspection and Treatment,DOH- Department Of Health,DOH,1,2018-07-10T09:28:20.000Z,2018-07-17T12:38:54.000Z,2018-07-30T09:28:00.000Z,2018-07-10T09:28:20.000Z,Y,2018-07-17T12:38:00.000Z,,CLOSED,CLOSED,18-00364389,STANDARD,212 RHODE ISLAND AVENUE NW,398720.41,138520.87,38.914553,-77.01475437,WASHINGTON,DC,20001,230051,5
-77.039773432300805,38.917208658145761,583,S0311,Rodent Inspection and Treatment,DOH- Department Of Health,DOH,1,2018-07-06T14:45:38.000Z,2018-07-12T15:07:09.000Z,2018-07-26T14:45:00.000Z,2018-07-06T14:45:38.000Z,Y,2018-07-12T15:07:00.000Z,,CLOSED,CLOSED,18-00358390,STANDARD,1737 U STREET NW,396550.93,138815.49,38.9172012,-77.03977114,WASHINGTON,DC,20009,241353,1
-77.023363742667854,38.946908346231602,584,S0311,Rodent Inspection and Treatment,DOH- Department Of Health,DOH,1,2018-06-28T19:51:30.000Z,2018-07-06T12:01:30.000Z,2018-07-19T17:00:00.000Z,2018-06-28T19:51:30.000Z,Y,2018-07-06T12:01:00.000Z,,CLOSED,CLOSED,18-00342481,STANDARD,4619 8TH STREET NW,397974.87,142111.92,38.94690088,-77.02336145,WASHINGTON,DC,20011,249852,4
-76.973287674790498,38.87314974364994,585,S0311,Rodent Inspection and Treatment,DOH- Department Of Health,DOH,1,2018-07-09T08:43:33.000Z,2018-07-12T08:15:56.000Z,2018-07-26T17:00:00.000Z,2018-07-09T08:43:33.000Z,Y,2018-07-12T08:14:00.000Z,,CLOSED,CLOSED,18-00361181,STANDARD,2305 NICHOLSON STREET SE,402318.2,133924.19,38.87314229,-76.9732854,WASHINGTON,DC,20020,48826,8
-77.05789902791561,38.905624460353096,586,S0311,Rodent Inspection and Treatment,DOH- Department Of Health,DOH,1,2018-06-24T18:55:27.000Z,2018-07-03T10:25:47.000Z,2018-07-13T17:00:00.000Z,2018-06-24T18:55:27.000Z,Y,2018-07-03T10:25:00.000Z,,CLOSED,CLOSED,18-00330891,STANDARD,1211 29TH STREET NW,394978.21,137530.39,38.90561701,-77.05789673,WASHINGTON,DC,20007,272098,2
-77.001410332086039,38.888092035159637,587,S0311,Rodent Inspection and Treatment,DOH- Department Of Health,DOH,1,2018-07-09T09:47:09.000Z,,2018-07-27T09:47:00.000Z,2018-07-09T09:47:09.000Z,Y,,,OPEN,OPEN,18-00361494,STANDARD,2 LIBRARY COURT SE,399877.84,135582.56,38.88808458,-77.00140805,WASHINGTON,DC,20003,289641,6
-76.972350335144014,38.873121419278412,588,S0311,Rodent Inspection and Treatment,DOH- Department Of Health,DOH,1,2018-07-05T00:54:24.000Z,2018-07-12T16:58:03.000Z,2018-07-24T17:00:00.000Z,2018-07-05T00:54:24.000Z,Y,2018-07-12T16:58:00.000Z,,CLOSED,CLOSED,18-00353400,STANDARD,2328 NICHOLSON STREET SE,402399.54,133921.07,38.87311397,-76.97234806,WASHINGTON,DC,20020,48396,7
-77.072465707828769,38.923439602887804,589,S0311,Rodent Inspection and Treatment,DOH- Department Of Health,DOH,1,2018-07-17T12:38:05.000Z,,2018-08-06T12:38:00.000Z,2018-07-17T12:38:05.000Z,Y,,,OPEN,OPEN,18-00381355,STANDARD,3628 DAVIS STREET NW,393716.31,139508.92,38.92343215,-77.0724634,WASHINGTON,DC,20007,223983,3
-76.994341668646882,38.842354744879025,590,S0311,Rodent Inspection and Treatment,DOH- Department Of Health,DOH,1,2018-07-02T09:42:13.000Z,2018-07-12T09:03:16.000Z,2018-07-23T09:42:00.000Z,2018-07-02T09:42:13.000Z,Y,2018-07-12T09:03:00.000Z,,CLOSED,CLOSED,18-00347500,STANDARD,832 WHEELER HILL DRIVE SE,400491.42,130505.4,38.8423473,-76.99433939,WASHINGTON,DC,20032,145956,8
-77.046459756642619,38.907075860275896,591,S0311,Rodent Inspection and Treatment,DOH- Department Of Health,DOH,1,2018-07-02T09:44:27.000Z,2018-07-20T10:47:01.000Z,2018-07-23T09:44:00.000Z,2018-07-02T09:44:27.000Z,Y,2018-07-20T10:46:00.000Z,,CLOSED,CLOSED,18-00347511,STANDARD,1279 21ST STREET NW,395970.5,137690.94,38.90706841,-77.04645746,WASHINGTON,DC,20036,226643,2
-77.006831032863275,38.871355241605862,592,S0311,Rodent Inspection and Treatment,DOH- Department Of Health,DOH,1,2018-06-26T16:40:59.000Z,2018-07-18T14:04:59.000Z,2018-07-17T16:40:00.000Z,2018-06-26T16:40:59.000Z,Y,2018-07-18T14:04:00.000Z,,CLOSED,CLOSED,18-00336460,STANDARD,79 POTOMAC AVENUE SE,399407.41,133724.67,38.87134746,-77.00682875,WASHINGTON,DC,20003,313299,6
-76.99558308697182,38.927588879232587,593,S0311,Rodent Inspection and Treatment,DOH- Department Of Health,DOH,1,2018-07-19T16:19:49.000Z,,2018-08-08T16:19:00.000Z,2018-07-19T16:19:49.000Z,Y,,,OPEN,OPEN,18-00387699,STANDARD,712 HAMLIN STREET NE,400383.19,139967.04,38.92758142,-76.9955808,WASHINGTON,DC,20017,77046,5
-77.010763158431118,38.831224166828633,594,S0311,Rodent Inspection and Treatment,DOH- Department Of Health,DOH,1,2018-07-13T19:29:26.000Z,,2018-08-02T17:00:00.000Z,2018-07-13T19:29:26.000Z,Y,,,OPEN,OPEN,18-00375123,STANDARD,4017 MARTIN LUTHER KING JR AVENUE SW,399065.66,129269.87,38.83121673,-77.01076088,WASHINGTON,DC,20032,27914,8
-76.995513160343407,38.928204775013789,595,S0311,Rodent Inspection and Treatment,DOH- Department Of Health,DOH,1,2018-07-19T16:21:12.000Z,,2018-08-08T16:21:00.000Z,2018-07-19T16:21:12.000Z,Y,,,OPEN,OPEN,18-00387706,STANDARD,713 IRVING STREET NE,400389.25,140035.41,38.92819732,-76.99551088,WASHINGTON,DC,20017,77144,5
-76.995391489911327,38.928202698369333,596,S0311,Rodent Inspection and Treatment,DOH- Department Of Health,DOH,1,2018-07-19T16:22:05.000Z,,2018-08-08T16:22:00.000Z,2018-07-19T16:22:05.000Z,Y,,,OPEN,OPEN,18-00387707,STANDARD,715 IRVING STREET NE,400399.8,140035.18,38.92819524,-76.99538921,WASHINGTON,DC,20017,77306,5
-77.045762759911582,38.912032257023938,597,S0311,Rodent Inspection and Treatment,DOH- Department Of Health,DOH,1,2018-07-13T11:03:48.000Z,2018-07-16T13:40:14.000Z,2018-08-02T11:03:00.000Z,2018-07-13T11:03:48.000Z,Y,2018-07-16T13:40:00.000Z,,CLOSED,CLOSED,18-00373467,STANDARD,2015 HILLYER PLACE NW,396031.23,138241.11,38.9120248,-77.04576046,WASHINGTON,DC,20009,242613,2
-77.031599467091354,38.928396159073408,598,S0311,Rodent Inspection and Treatment,DOH- Department Of Health,DOH,1,2018-07-20T14:59:41.000Z,,2018-08-09T14:59:00.000Z,2018-07-20T14:59:41.000Z,Y,,,OPEN,OPEN,18-00389959,STANDARD,1356 IRVING STREET NW,397260.23,140057.12,38.9283887,-77.03159717,WASHINGTON,DC,20010,231387,1
-77.011977599071471,38.916814032964169,599,S0311,Rodent Inspection and Treatment,DOH- Department Of Health,DOH,1,2018-06-25T15:52:17.000Z,2018-07-06T13:22:49.000Z,2018-07-16T15:52:00.000Z,2018-06-25T15:52:17.000Z,Y,2018-07-06T13:22:00.000Z,,CLOSED,CLOSED,18-00333179,STANDARD,1941 1ST STREET NW,398961.46,138771,38.91680658,-77.01197531,WASHINGTON,DC,20001,227401,5
-76.990492507350368,38.903856028553626,600,S0311,Rodent Inspection and Treatment,DOH- Department Of Health,DOH,1,2018-07-09T22:40:42.000Z,2018-07-18T16:07:15.000Z,2018-07-27T17:00:00.000Z,2018-07-09T22:40:42.000Z,Y,2018-07-18T16:07:00.000Z,,CLOSED,CLOSED,18-00363728,STANDARD,1163 MORSE STREET NE,400824.87,137332.53,38.90384857,-76.99049023,WASHINGTON,DC,20002,72586,5
-77.06876016101576,38.905767480954637,601,S0311,Rodent Inspection and Treatment,DOH- Department Of Health,DOH,1,2018-07-19T13:08:23.000Z,,2018-08-08T13:08:00.000Z,2018-07-19T13:08:23.000Z,Y,,,OPEN,OPEN,18-00386909,STANDARD,3424 PROSPECT STREET NW,394036.16,137546.92,38.90576003,-77.06875786,WASHINGTON,DC,20007,271919,2
-77.031173416911457,38.920416252682422,602,S0311,Rodent Inspection and Treatment,DOH- Department Of Health,DOH,1,2018-07-15T22:16:39.000Z,2018-07-18T15:20:31.000Z,2018-08-02T17:00:00.000Z,2018-07-15T22:16:39.000Z,Y,2018-07-18T15:21:00.000Z,,CLOSED,CLOSED,18-00376832,STANDARD,1349 FLORIDA AVENUE NW,397296.87,139171.27,38.9204088,-77.03117112,WASHINGTON,DC,20009,232110,1
-77.028052129122557,38.969222222282312,603,S0311,Rodent Inspection and Treatment,DOH- Department Of Health,DOH,1,2018-07-02T16:28:42.000Z,2018-07-10T15:21:18.000Z,2018-07-23T16:28:00.000Z,2018-07-02T16:28:42.000Z,Y,2018-07-10T15:23:00.000Z,,CLOSED,CLOSED,18-00349048,STANDARD,1211 UNDERWOOD STREET NW,397569.21,144589.08,38.96921476,-77.02804983,WASHINGTON,DC,20012,253301,4
-77.002662471516572,38.913869701797317,604,S0311,Rodent Inspection and Treatment,DOH- Department Of Health,DOH,1,2018-07-02T16:32:42.000Z,2018-07-13T14:58:12.000Z,2018-07-23T16:32:00.000Z,2018-07-02T16:32:42.000Z,Y,2018-07-13T14:58:00.000Z,,CLOSED,CLOSED,18-00349061,STANDARD,219 S STREET NE,399769.29,138444.09,38.91386225,-77.00266019,WASHINGTON,DC,20002,50842,5
-77.019509557347746,38.915424383334262,605,S0311,Rodent Inspection and Treatment,DOH- Department Of Health,DOH,1,2018-06-28T13:27:53.000Z,2018-07-03T06:57:25.000Z,2018-07-19T13:27:00.000Z,2018-06-28T13:27:53.000Z,Y,2018-07-03T06:57:00.000Z,,CLOSED,CLOSED,18-00341381,STANDARD,535 FLORIDA AVENUE NW,398308.23,138616.85,38.91541693,-77.01950727,WASHINGTON,DC,20001,229895,1
-77.031107901807488,38.923551167131627,606,S0311,Rodent Inspection and Treatment,DOH- Department Of Health,DOH,1,2018-07-10T09:43:16.000Z,2018-07-12T14:43:31.000Z,2018-07-30T09:43:00.000Z,2018-07-10T09:43:16.000Z,Y,2018-07-12T14:43:00.000Z,,CLOSED,CLOSED,18-00364478,STANDARD,1348 EUCLID STREET NW,397302.67,139519.27,38.92354371,-77.03110561,WASHINGTON,DC,20009,300324,1
-77.002328479080973,38.915226184251416,607,S0311,Rodent Inspection and Treatment,DOH- Department Of Health,DOH,1,2018-07-06T14:55:55.000Z,,2018-07-26T14:55:00.000Z,2018-07-06T14:55:55.000Z,Y,,,OPEN,OPEN,18-00358437,STANDARD,1838 3RD STREET NE,399798.26,138594.67,38.91521873,-77.00232619,WASHINGTON,DC,20002,55026,5
-76.988631111079428,38.878240999465739,608,S0311,Rodent Inspection and Treatment,DOH- Department Of Health,DOH,1,2018-07-01T21:05:13.000Z,2018-07-18T15:28:41.000Z,2018-07-20T17:00:00.000Z,2018-07-01T21:05:13.000Z,Y,2018-07-18T15:28:00.000Z,,CLOSED,CLOSED,18-00346945,STANDARD,1253 K STREET SE,400986.68,134489.08,38.87823355,-76.98862883,WASHINGTON,DC,20003,69473,6
-77.006737611276336,38.905886072891988,609,S0311,Rodent Inspection and Treatment,DOH- Department Of Health,DOH,1,2018-06-28T10:39:44.000Z,,2018-07-19T10:39:00.000Z,2018-06-28T10:39:44.000Z,Y,,,OPEN,OPEN,18-00340585,STANDARD,88 M STREET NE,399415.8,137557.86,38.90587862,-77.00673533,WASHINGTON,DC,20002,310705,6
-77.0149533858837,38.94432677946223,610,S0311,Rodent Inspection and Treatment,DOH- Department Of Health,DOH,1,2018-07-01T19:58:11.000Z,2018-07-06T14:59:00.000Z,2018-07-20T17:00:00.000Z,2018-07-01T19:58:11.000Z,Y,2018-07-06T14:58:00.000Z,,CLOSED,CLOSED,18-00346911,STANDARD,200 - 299 BLOCK OF WEBSTER STREET NW,398703.89,141825.19,38.9443189829517,-77.0149510949806,WASHINGTON,DC,20011,805414,4
-77.006068939601718,38.96570780018827,611,S0311,Rodent Inspection and Treatment,DOH- Department Of Health,DOH,1,2018-07-08T21:43:59.000Z,2018-07-12T11:22:24.000Z,2018-07-26T17:00:00.000Z,2018-07-08T21:43:59.000Z,Y,2018-07-12T11:22:00.000Z,,CLOSED,CLOSED,18-00360750,STANDARD,100 RITTENHOUSE STREET NE,399474.24,144198.59,38.96570033,-77.00606665,WASHINGTON,DC,20011,76106,4
-76.928349461706318,38.903911466771234,612,S0311,Rodent Inspection and Treatment,DOH- Department Of Health,DOH,1,2018-07-18T10:19:32.000Z,,2018-08-07T10:19:00.000Z,2018-07-18T10:19:32.000Z,Y,,,OPEN,OPEN,18-00383527,STANDARD,1005 50TH STREET NE,406215.1,137341.08,38.90390401,-76.9283472,WASHINGTON,DC,20019,76319,7
-77.019736106842643,38.941152449509886,613,S0311,Rodent Inspection and Treatment,DOH- Department Of Health,DOH,1,2018-07-05T10:27:43.000Z,,2018-07-25T10:27:00.000Z,2018-07-05T10:27:43.000Z,Y,,,OPEN,OPEN,18-00354196,STANDARD,513 TAYLOR STREET NW,398289.2,141472.89,38.94114499,-77.01973381,WASHINGTON,DC,20011,247555,4
-77.008725038815285,38.92217706910241,614,S0311,Rodent Inspection and Treatment,DOH- Department Of Health,DOH,1,2018-07-01T20:04:17.000Z,2018-07-05T07:59:33.000Z,2018-07-20T17:00:00.000Z,2018-07-01T20:04:17.000Z,Y,2018-07-05T07:59:00.000Z,,CLOSED,CLOSED,18-00346915,STANDARD,2427 NORTH CAPITOL STREET NE,399243.59,139366.31,38.92216961,-77.00872275,WASHINGTON,DC,20002,47108,5
-77.068595027843031,38.913882026613507,615,S0311,Rodent Inspection and Treatment,DOH- Department Of Health,DOH,1,2018-07-03T06:42:29.000Z,2018-07-05T15:06:48.000Z,2018-07-23T17:00:00.000Z,2018-07-03T06:42:29.000Z,Y,2018-07-05T15:06:00.000Z,,CLOSED,CLOSED,18-00349834,STANDARD,3417 R STREET NW,394051.16,138447.69,38.91387457,-77.06859272,WASHINGTON,DC,20007,273605,2
-77.029370099543527,38.917843040152867,616,S0311,Rodent Inspection and Treatment,DOH- Department Of Health,DOH,1,2018-06-28T11:32:42.000Z,2018-07-03T07:00:25.000Z,2018-07-19T11:32:00.000Z,2018-06-28T11:32:42.000Z,Y,2018-07-03T07:00:00.000Z,,CLOSED,CLOSED,18-00340867,STANDARD,2029 13TH STREET NW,397453.16,138885.57,38.91783558,-77.02936781,WASHINGTON,DC,20009,240802,1
-77.038590244234953,38.932987487206887,617,S0311,Rodent Inspection and Treatment,DOH- Department Of Health,DOH,1,2018-06-29T08:49:21.000Z,2018-07-03T07:02:17.000Z,2018-07-19T17:00:00.000Z,2018-06-29T08:49:21.000Z,Y,2018-07-03T07:02:00.000Z,,CLOSED,CLOSED,18-00342825,STANDARD,3315 17TH STREET NW,396654.28,140567.03,38.93298003,-77.03858795,WASHINGTON,DC,20010,233570,1
-77.03320761539085,38.91431696113812,618,S0311,Rodent Inspection and Treatment,DOH- Department Of Health,DOH,1,2018-07-17T16:13:39.000Z,,2018-08-06T16:13:00.000Z,2018-07-17T16:13:39.000Z,Y,,,OPEN,OPEN,18-00382285,STANDARD,1429 S STREET NW,397120.22,138494.26,38.91430951,-77.03320532,WASHINGTON,DC,20009,218275,2
-77.005883742594804,38.965721322029346,619,S0311,Rodent Inspection and Treatment,DOH- Department Of Health,DOH,1,2018-07-05T10:29:59.000Z,2018-07-11T09:32:54.000Z,2018-07-25T10:29:00.000Z,2018-07-05T10:29:59.000Z,Y,2018-07-11T09:35:00.000Z,,CLOSED,CLOSED,18-00354213,STANDARD,108 RITTENHOUSE STREET NE,399490.29,144200.09,38.96571386,-77.00588145,WASHINGTON,DC,20011,74631,4
-77.072421537542226,38.920030428761777,620,S0311,Rodent Inspection and Treatment,DOH- Department Of Health,DOH,1,2018-07-13T11:02:38.000Z,,2018-08-02T11:02:00.000Z,2018-07-13T11:02:38.000Z,Y,,,OPEN,OPEN,18-00373465,STANDARD,2248 HALL PLACE NW,393719.84,139130.47,38.92002297,-77.07241923,WASHINGTON,DC,20007,284322,3
-77.089002818316757,38.909216984527426,621,S0311,Rodent Inspection and Treatment,DOH- Department Of Health,DOH,1,2018-06-25T10:56:23.000Z,2018-07-03T15:04:12.000Z,2018-07-16T10:56:00.000Z,2018-06-25T10:56:23.000Z,Y,2018-07-03T15:04:00.000Z,,CLOSED,CLOSED,18-00331817,STANDARD,4645 GREENE PLACE NW,392280.75,137931.36,38.90920953,-77.08900051,WASHINGTON,DC,20007,224341,3
-76.926348874091204,38.891618846736094,622,S0311,Rodent Inspection and Treatment,DOH- Department Of Health,DOH,1,2018-07-17T10:19:13.000Z,2018-07-18T15:43:10.000Z,2018-08-06T10:19:00.000Z,2018-07-17T10:19:13.000Z,Y,2018-07-18T15:43:00.000Z,,CLOSED,CLOSED,18-00380732,STANDARD,5225 BLAINE STREET NE,406389.73,135976.64,38.89161139,-76.92634661,WASHINGTON,DC,20019,304577,7
-76.994729405618301,38.898394798945397,623,S0311,Rodent Inspection and Treatment,DOH- Department Of Health,DOH,1,2018-06-28T08:58:44.000Z,2018-07-06T13:47:37.000Z,2018-07-18T17:00:00.000Z,2018-06-28T08:58:44.000Z,Y,2018-07-06T13:47:00.000Z,,CLOSED,CLOSED,18-00340163,STANDARD,637 8TH STREET NE,400457.4,136726.26,38.89838735,-76.99472712,WASHINGTON,DC,20002,2382,6
-76.994734240465036,38.898488125802146,624,S0311,Rodent Inspection and Treatment,DOH- Department Of Health,DOH,1,2018-06-25T20:48:33.000Z,2018-07-06T13:49:51.000Z,2018-07-16T17:00:00.000Z,2018-06-25T20:48:33.000Z,Y,2018-07-06T13:49:00.000Z,,CLOSED,CLOSED,18-00333743,STANDARD,641 8TH STREET NE,400456.98,136736.62,38.89848067,-76.99473196,WASHINGTON,DC,20002,1964,6
-76.997257005710779,38.925790600304069,625,S0311,Rodent Inspection and Treatment,DOH- Department Of Health,DOH,1,2018-06-28T08:36:06.000Z,2018-07-10T13:54:25.000Z,2018-07-18T17:00:00.000Z,2018-06-28T08:36:06.000Z,Y,2018-07-10T13:54:00.000Z,,CLOSED,CLOSED,18-00340072,STANDARD,624 FRANKLIN STREET NE,400238.05,139767.41,38.92578314,-76.99725472,WASHINGTON,DC,20017,3278,5
-77.025545282210757,38.926007372796299,626,S0311,Rodent Inspection and Treatment,DOH- Department Of Health,DOH,1,2018-06-28T23:48:54.000Z,2018-07-03T07:08:44.000Z,2018-07-19T17:00:00.000Z,2018-06-28T23:48:54.000Z,Y,2018-07-03T07:09:00.000Z,,CLOSED,CLOSED,18-00342586,STANDARD,2801 SHERMAN AVENUE NW,397785.11,139791.78,38.92599991,-77.02554299,WASHINGTON,DC,20001,232511,1
-77.053792922571503,38.928383186310661,627,S0311,Rodent Inspection and Treatment,DOH- Department Of Health,DOH,1,2018-07-06T10:12:20.000Z,,2018-07-26T10:12:00.000Z,2018-07-06T10:12:20.000Z,Y,,,OPEN,OPEN,18-00357125,STANDARD,2901 CONNECTICUT AVENUE NW,395335.85,140056.58,38.92837573,-77.05379062,WASHINGTON,DC,20008,219216,3
-77.069231322760302,38.907158002229558,628,S0311,Rodent Inspection and Treatment,DOH- Department Of Health,DOH,1,2018-07-06T10:12:34.000Z,,2018-07-26T10:12:00.000Z,2018-07-06T10:12:34.000Z,Y,,,OPEN,OPEN,18-00357127,STANDARD,1316 35TH STREET NW,393995.41,137701.31,38.90715055,-77.06922902,WASHINGTON,DC,20007,272258,2
-77.001792274061174,38.91863674843129,629,S0311,Rodent Inspection and Treatment,DOH- Department Of Health,DOH,1,2018-07-11T10:41:30.000Z,2018-07-17T12:45:42.000Z,2018-07-31T10:41:00.000Z,2018-07-11T10:41:30.000Z,Y,2018-07-17T12:45:00.000Z,,CLOSED,CLOSED,18-00367656,STANDARD,2115 3RD STREET NE,399844.77,138973.27,38.91862929,-77.00178999,WASHINGTON,DC,20002,51673,5
-77.03746120207758,38.935574138668478,630,S0311,Rodent Inspection and Treatment,DOH- Department Of Health,DOH,1,2018-06-28T08:57:29.000Z,2018-07-03T07:10:29.000Z,2018-07-18T17:00:00.000Z,2018-06-28T08:57:29.000Z,Y,2018-07-03T07:07:00.000Z,,CLOSED,CLOSED,18-00340155,STANDARD,1626 OAK STREET NW,396752.29,140854.13,38.93556668,-77.0374589,WASHINGTON,DC,20010,234068,1
-77.037515422431966,38.935594660205524,631,S0311,Rodent Inspection and Treatment,DOH- Department Of Health,DOH,1,2018-06-28T08:57:27.000Z,2018-07-03T07:11:48.000Z,2018-07-18T17:00:00.000Z,2018-06-28T08:57:27.000Z,Y,2018-07-03T07:04:00.000Z,,CLOSED,CLOSED,18-00340154,STANDARD,1628 OAK STREET NW,396747.59,140856.41,38.9355872,-77.03751313,WASHINGTON,DC,20010,234067,1
-77.033848000602546,38.93371151303878,632,S0311,Rodent Inspection and Treatment,DOH- Department Of Health,DOH,1,2018-07-05T08:58:55.000Z,2018-07-11T07:09:17.000Z,2018-07-24T17:00:00.000Z,2018-07-05T08:58:55.000Z,Y,2018-07-11T07:09:00.000Z,,CLOSED,CLOSED,18-00353756,STANDARD,1429 MERIDIAN PLACE NW,397065.48,140647.24,38.93370405,-77.0338457,WASHINGTON,DC,20010,310299,1
-76.99242309497798,38.899779978044009,633,S0311,Rodent Inspection and Treatment,DOH- Department Of Health,DOH,1,2018-06-27T13:30:32.000Z,2018-07-06T12:43:03.000Z,2018-07-18T13:30:00.000Z,2018-06-27T13:30:32.000Z,Y,2018-07-06T12:43:00.000Z,,CLOSED,CLOSED,18-00338469,STANDARD,727 10TH STREET NE,400657.45,136880.04,38.89977252,-76.99242081,WASHINGTON,DC,20002,78072,6
-77.022633830734335,38.936237178113736,634,S0311,Rodent Inspection and Treatment,DOH- Department Of Health,DOH,1,2018-06-28T15:27:21.000Z,2018-07-03T07:15:03.000Z,2018-07-19T15:27:00.000Z,2018-06-28T15:27:21.000Z,Y,2018-07-03T07:15:00.000Z,,CLOSED,CLOSED,18-00341838,STANDARD,737 QUEBEC PLACE NW,398037.85,140927.31,38.93622972,-77.02263154,WASHINGTON,DC,20010,228416,1
-77.020166976295727,38.9323337012937,635,S0311,Rodent Inspection and Treatment,DOH- Department Of Health,DOH,1,2018-07-03T07:18:30.000Z,2018-07-06T07:20:24.000Z,2018-07-23T17:00:00.000Z,2018-07-03T07:18:30.000Z,Y,2018-07-06T07:20:00.000Z,,CLOSED,CLOSED,18-00349877,STANDARD,456 PARK ROAD NW,398251.63,140493.94,38.93232624,-77.02016468,WASHINGTON,DC,20010,229034,1
-76.995633562311824,38.928204689488908,636,S0311,Rodent Inspection and Treatment,DOH- Department Of Health,DOH,1,2018-07-17T16:59:15.000Z,,2018-08-06T16:59:00.000Z,2018-07-17T16:59:15.000Z,Y,,,OPEN,OPEN,18-00382466,STANDARD,711 IRVING STREET NE,400378.81,140035.4,38.92819723,-76.99563128,WASHINGTON,DC,20017,76949,5
-77.017241981610681,38.91133702615965,342,S0311,Rodent Inspection and Treatment,DOH- Department Of Health,DOH,1,2018-07-08T11:41:44.000Z,,2018-07-26T17:00:00.000Z,2018-07-08T11:41:44.000Z,Y,,,OPEN,OPEN,18-00360392,STANDARD,1604 NEW JERSEY AVENUE NW,398504.8,138163.08,38.91132957,-77.01723969,WASHINGTON,DC,20001,237298,6
-77.034385380594074,38.931616024016748,343,S0311,Rodent Inspection and Treatment,DOH- Department Of Health,DOH,1,2018-07-19T11:40:41.000Z,,2018-08-08T11:40:00.000Z,2018-07-19T11:40:41.000Z,Y,,,OPEN,OPEN,18-00386553,STANDARD,1450 MONROE STREET NW,397018.8,140414.64,38.93160857,-77.03438308,WASHINGTON,DC,20010,234453,1
-76.982026409189984,38.903042389302001,344,S0311,Rodent Inspection and Treatment,DOH- Department Of Health,DOH,1,2018-07-13T13:19:18.000Z,,2018-08-02T13:19:00.000Z,2018-07-13T13:19:18.000Z,Y,,,OPEN,OPEN,18-00374032,STANDARD,1000 BLADENSBURG ROAD NE,401559.23,137242.32,38.90303493,-76.98202413,WASHINGTON,DC,20002,76125,5
-77.001764362791732,38.913749277350277,345,S0311,Rodent Inspection and Treatment,DOH- Department Of Health,DOH,1,2018-07-17T09:21:34.000Z,,2018-08-06T09:21:00.000Z,2018-07-17T09:21:34.000Z,Y,,,OPEN,OPEN,18-00380493,STANDARD,1727 3RD STREET NE,399847.18,138430.72,38.91374182,-77.00176208,WASHINGTON,DC,20002,56927,5
-77.054964126884812,38.974976770783741,346,S0311,Rodent Inspection and Treatment,DOH- Department Of Health,DOH,1,2018-07-11T12:36:06.000Z,2018-07-17T08:23:34.000Z,2018-07-31T12:36:00.000Z,2018-07-11T12:36:06.000Z,Y,2018-07-17T08:26:00.000Z,,CLOSED,CLOSED,18-00368217,STANDARD,2770 UNICORN LANE NW,395237.41,145228.95,38.9749693,-77.05496182,WASHINGTON,DC,20015,260510,4
-77.073704748644644,38.914668045712027,347,S0311,Rodent Inspection and Treatment,DOH- Department Of Health,DOH,1,2018-07-20T14:40:57.000Z,,2018-08-09T14:40:00.000Z,2018-07-20T14:40:57.000Z,Y,,,OPEN,OPEN,18-00389888,STANDARD,3715 S STREET NW,393608.08,138535.29,38.91466059,-77.07370244,WASHINGTON,DC,20007,270602,2
-77.033455694929444,38.914686952859817,348,S0311,Rodent Inspection and Treatment,DOH- Department Of Health,DOH,1,2018-07-20T10:30:42.000Z,,2018-08-09T10:30:00.000Z,2018-07-20T10:30:42.000Z,Y,,,OPEN,OPEN,18-00388863,STANDARD,1428 SWANN STREET NW,397098.72,138535.34,38.9146795,-77.0334534,WASHINGTON,DC,20009,240066,2
-77.028790511166022,38.956025310594313,349,S0311,Rodent Inspection and Treatment,DOH- Department Of Health,DOH,1,2018-07-05T10:14:31.000Z,2018-07-11T09:46:14.000Z,2018-07-25T10:14:00.000Z,2018-07-05T10:14:31.000Z,Y,2018-07-11T09:48:00.000Z,,CLOSED,CLOSED,18-00354121,STANDARD,1218 KENNEDY STREET NW,397504.76,143124.12,38.95601785,-77.02878822,WASHINGTON,DC,20011,253041,4
-77.02067053885753,38.881858844549576,350,S0311,Rodent Inspection and Treatment,DOH- Department Of Health,DOH,1,2018-06-26T20:16:30.000Z,2018-07-18T14:10:18.000Z,2018-07-17T17:00:00.000Z,2018-06-26T20:16:30.000Z,Y,2018-07-18T14:10:00.000Z,,CLOSED,CLOSED,18-00336821,STANDARD,602 6TH PLACE SW,398206.7,134890.83,38.8818514,-77.02066825,WASHINGTON,DC,20024,5634,6
-77.031047960124056,38.968102371095917,351,S0311,Rodent Inspection and Treatment,DOH- Department Of Health,DOH,1,2018-07-06T14:25:05.000Z,,2018-07-26T14:25:00.000Z,2018-07-06T14:25:05.000Z,Y,,,OPEN,OPEN,18-00358301,STANDARD,1334 TEWKESBURY PLACE NW,397309.55,144464.85,38.9680949,-77.03104566,WASHINGTON,DC,20012,257450,4
-77.021846392851231,38.94110424009272,352,S0311,Rodent Inspection and Treatment,DOH- Department Of Health,DOH,1,2018-07-12T15:13:57.000Z,2018-07-19T08:46:03.000Z,2018-08-01T15:13:00.000Z,2018-07-12T15:13:57.000Z,Y,2018-07-19T08:47:00.000Z,,CLOSED,CLOSED,18-00371875,STANDARD,703 TAYLOR STREET NW,398106.25,141467.58,38.94109678,-77.0218441,WASHINGTON,DC,20011,249734,4
-77.017456607075843,38.944049067266228,353,S0311,Rodent Inspection and Treatment,DOH- Department Of Health,DOH,1,2018-07-05T11:45:23.000Z,2018-07-12T10:58:37.000Z,2018-07-25T11:45:00.000Z,2018-07-05T11:45:23.000Z,Y,2018-07-12T10:58:00.000Z,,CLOSED,CLOSED,18-00354567,STANDARD,4326 4TH STREET NW,398486.88,141794.4,38.94404161,-77.01745432,WASHINGTON,DC,20011,248107,4
-77.009630135673845,38.919374597798424,354,S0311,Rodent Inspection and Treatment,DOH- Department Of Health,DOH,1,2018-06-27T17:29:55.000Z,2018-07-13T14:03:49.000Z,2018-07-18T17:00:00.000Z,2018-06-27T17:29:55.000Z,Y,2018-07-13T14:03:00.000Z,,CLOSED,CLOSED,18-00339421,STANDARD,11 W STREET NW,399165.07,139055.22,38.91936714,-77.00962785,WASHINGTON,DC,20001,228038,5
-77.065926149229369,38.910468229944691,355,S0311,Rodent Inspection and Treatment,DOH- Department Of Health,DOH,1,2018-06-27T17:30:11.000Z,2018-07-06T11:07:44.000Z,2018-07-18T17:00:00.000Z,2018-06-27T17:30:11.000Z,Y,2018-07-06T11:07:00.000Z,,CLOSED,CLOSED,18-00339422,STANDARD,1565 33RD STREET NW,394282.35,138068.56,38.91046078,-77.06592384,WASHINGTON,DC,20007,272717,2
-76.988026563541169,38.905497033693436,356,S0311,Rodent Inspection and Treatment,DOH- Department Of Health,DOH,1,2018-06-27T20:12:07.000Z,2018-07-10T13:59:34.000Z,2018-07-18T17:00:00.000Z,2018-06-27T20:12:07.000Z,Y,2018-07-10T13:59:00.000Z,,CLOSED,CLOSED,18-00339651,STANDARD,1200 OATES STREET NE,401038.74,137514.72,38.90548958,-76.98802428,WASHINGTON,DC,20002,285911,5
-77.01243006730283,38.913479099853632,357,S0311,Rodent Inspection and Treatment,DOH- Department Of Health,DOH,1,2018-07-07T20:10:09.000Z,2018-07-18T16:11:03.000Z,2018-07-26T17:00:00.000Z,2018-07-07T20:10:09.000Z,Y,2018-07-18T16:11:00.000Z,,CLOSED,CLOSED,18-00360147,STANDARD,1720 1ST STREET NW,398922.17,138400.8,38.91347164,-77.01242778,WASHINGTON,DC,20001,226966,5
-76.987419505875692,38.886828751829036,358,S0311,Rodent Inspection and Treatment,DOH- Department Of Health,DOH,1,2018-06-25T11:04:25.000Z,2018-07-10T13:03:23.000Z,2018-07-16T11:04:00.000Z,2018-06-25T11:04:25.000Z,Y,2018-07-10T13:03:00.000Z,,CLOSED,CLOSED,18-00331845,STANDARD,234 KENTUCKY AVENUE SE,401091.68,135442.4,38.8868213,-76.98741723,WASHINGTON,DC,20003,48131,6
-77.019237702673308,38.938649758304628,359,S0311,Rodent Inspection and Treatment,DOH- Department Of Health,DOH,1,2018-07-13T15:14:34.000Z,,2018-08-02T15:14:00.000Z,2018-07-13T15:14:34.000Z,Y,,,OPEN,OPEN,18-00374501,STANDARD,3832 5TH STREET NW,398332.35,141195.06,38.9386423,-77.01923541,WASHINGTON,DC,20011,247801,4
-77.017432031565704,38.943555777129646,360,S0311,Rodent Inspection and Treatment,DOH- Department Of Health,DOH,1,2018-06-27T09:25:14.000Z,2018-07-06T11:49:36.000Z,2018-07-18T09:25:00.000Z,2018-06-27T09:25:14.000Z,Y,2018-07-06T11:49:00.000Z,,CLOSED,CLOSED,18-00337372,STANDARD,4308 4TH STREET NW,398489,141739.64,38.94354832,-77.01742974,WASHINGTON,DC,20011,248116,4
-76.939619537116684,38.880405346057792,361,S0311,Rodent Inspection and Treatment,DOH- Department Of Health,DOH,1,2018-07-12T21:13:07.000Z,2018-07-18T15:53:27.000Z,2018-08-01T17:00:00.000Z,2018-07-12T21:13:07.000Z,Y,2018-07-18T15:53:00.000Z,,CLOSED,CLOSED,18-00372599,STANDARD,4394 G STREET SE,405239.27,134731.01,38.88039789,-76.93961727,WASHINGTON,DC,20019,278500,7
-76.931048746484592,38.895760071935946,362,S0311,Rodent Inspection and Treatment,DOH- Department Of Health,DOH,1,2018-07-20T18:42:49.000Z,,2018-08-09T17:00:00.000Z,2018-07-20T18:42:49.000Z,Y,,,OPEN,OPEN,18-00390415,STANDARD,4940 EADS PLACE NE,405981.65,136436.03,38.89575262,-76.93104648,WASHINGTON,DC,20019,152242,7
-77.000579336771494,38.894081260185807,363,S0311,Rodent Inspection and Treatment,DOH- Department Of Health,DOH,1,2018-06-24T07:48:42.000Z,2018-06-26T08:30:58.000Z,2018-07-13T17:00:00.000Z,2018-06-24T07:48:42.000Z,Y,2018-06-26T08:30:00.000Z,,CLOSED,CLOSED,18-00330530,STANDARD,,399949.93999791,136247.41001187,38.8940738065712,-77.0005770534183,,,20002,901225,6
-77.007499412509262,38.910941690768801,364,S0311,Rodent Inspection and Treatment,DOH- Department Of Health,DOH,1,2018-06-25T09:48:53.000Z,2018-07-06T12:35:19.000Z,2018-07-16T09:48:00.000Z,2018-06-25T09:48:53.000Z,Y,2018-07-06T12:35:00.000Z,,CLOSED,CLOSED,18-00331538,STANDARD,37 Q STREET NE,399349.77,138119.08,38.91093423,-77.00749713,WASHINGTON,DC,20002,31901,5
-77.037888289208155,38.913191296418546,365,S0311,Rodent Inspection and Treatment,DOH- Department Of Health,DOH,1,2018-06-25T09:48:30.000Z,2018-07-02T15:42:47.000Z,2018-07-16T09:48:00.000Z,2018-06-25T09:48:30.000Z,Y,2018-07-02T15:42:00.000Z,,CLOSED,CLOSED,18-00331535,STANDARD,1628 RIGGS PLACE NW,396714.23,138369.46,38.91318384,-77.03788599,WASHINGTON,DC,20009,241942,2
-77.039045166814219,38.930744177258056,366,S0311,Rodent Inspection and Treatment,DOH- Department Of Health,DOH,1,2018-06-30T18:18:24.000Z,2018-07-05T07:08:00.000Z,2018-07-20T17:00:00.000Z,2018-06-30T18:18:24.000Z,Y,2018-07-05T07:08:00.000Z,,CLOSED,CLOSED,18-00346338,STANDARD,1701 KILBOURNE PLACE NW,396614.73,140318.02,38.93073672,-77.03904287,WASHINGTON,DC,20010,233165,1
-77.065053626713876,38.906488470178125,367,S0311,Rodent Inspection and Treatment,DOH- Department Of Health,DOH,1,2018-07-13T16:51:02.000Z,2018-07-20T11:09:37.000Z,2018-08-02T16:51:00.000Z,2018-07-13T16:51:02.000Z,Y,2018-07-20T11:09:00.000Z,,CLOSED,CLOSED,18-00374853,STANDARD,1241 POTOMAC STREET NW,394357.71,137626.72,38.90648102,-77.06505132,WASHINGTON,DC,20007,272157,2
-77.003336039177711,38.917932082929781,368,S0311,Rodent Inspection and Treatment,DOH- Department Of Health,DOH,1,2018-07-03T13:33:54.000Z,2018-07-10T10:40:15.000Z,2018-07-24T13:33:00.000Z,2018-07-03T13:33:54.000Z,Y,2018-07-10T10:40:00.000Z,,CLOSED,CLOSED,18-00351443,STANDARD,2039 2ND STREET NE,399710.89,138895.05,38.91792463,-77.00333375,WASHINGTON,DC,20002,52338,5
-77.014368123144621,38.91363084824372,369,S0311,Rodent Inspection and Treatment,DOH- Department Of Health,DOH,1,2018-06-27T12:54:01.000Z,2018-07-13T14:51:58.000Z,2018-07-18T12:54:00.000Z,2018-06-27T12:54:01.000Z,Y,2018-07-13T14:51:00.000Z,,CLOSED,CLOSED,18-00338289,STANDARD,1712 2ND STREET NW,398754.09,138417.67,38.91362339,-77.01436583,WASHINGTON,DC,20001,230067,5
-77.010403826540752,38.915003868841694,370,S0311,Rodent Inspection and Treatment,DOH- Department Of Health,DOH,1,2018-06-26T22:25:33.000Z,2018-07-18T15:31:15.000Z,2018-07-17T17:00:00.000Z,2018-06-26T22:25:33.000Z,Y,2018-07-18T15:31:00.000Z,,CLOSED,CLOSED,18-00336906,STANDARD,39 SEATON PLACE NW,399097.92,138570.04,38.91499641,-77.01040154,WASHINGTON,DC,20001,242963,5
-77.036857279640842,38.985986341852133,371,S0311,Rodent Inspection and Treatment,DOH- Department Of Health,DOH,1,2018-07-13T16:32:35.000Z,,2018-08-02T16:32:00.000Z,2018-07-13T16:32:35.000Z,Y,,,OPEN,OPEN,18-00374792,STANDARD,1601 KALMIA ROAD NW,396806.91,146450.33,38.98597887,-77.03685498,WASHINGTON,DC,20012,303451,4
-76.954563652923866,38.894415554640865,372,S0311,Rodent Inspection and Treatment,DOH- Department Of Health,DOH,1,2018-07-12T20:56:53.000Z,2018-07-13T09:35:16.000Z,2018-08-01T17:00:00.000Z,2018-07-12T20:56:53.000Z,Y,2018-07-13T09:35:00.000Z,,CLOSED,CLOSED,18-00372545,STANDARD,327 36TH STREET NE,403941.83,136285.5,38.8944081,-76.95456138,WASHINGTON,DC,20019,37305,7
-77.031436732386751,38.934396277131654,373,S0311,Rodent Inspection and Treatment,DOH- Department Of Health,DOH,1,2018-07-13T11:52:00.000Z,2018-07-18T15:15:39.000Z,2018-08-02T11:52:00.000Z,2018-07-13T11:52:00.000Z,Y,2018-07-18T15:16:00.000Z,,CLOSED,CLOSED,18-00373679,STANDARD,1348 OTIS PLACE NW,397274.57,140723.18,38.93438882,-77.03143444,WASHINGTON,DC,20010,230787,1
-77.03344856332555,38.92136167802682,374,S0311,Rodent Inspection and Treatment,DOH- Department Of Health,DOH,1,2018-07-11T13:27:54.000Z,2018-07-17T07:08:15.000Z,2018-07-31T13:27:00.000Z,2018-07-11T13:27:54.000Z,Y,2018-07-17T07:08:00.000Z,,CLOSED,CLOSED,18-00368473,STANDARD,1428 CHAPIN STREET NW,397099.61,139276.29,38.92135422,-77.03344627,WASHINGTON,DC,20009,234164,1
-77.022568355158114,38.942186359000431,375,S0311,Rodent Inspection and Treatment,DOH- Department Of Health,DOH,1,2018-07-10T16:25:33.000Z,2018-07-13T09:48:17.000Z,2018-07-30T16:25:00.000Z,2018-07-10T16:25:33.000Z,Y,2018-07-13T09:50:00.000Z,,CLOSED,CLOSED,18-00366337,STANDARD,723 UPSHUR STREET NW,398043.69,141587.72,38.9421789,-77.02256606,WASHINGTON,DC,20011,249770,4
-77.03360806681232,38.914310180468419,376,S0311,Rodent Inspection and Treatment,DOH- Department Of Health,DOH,1,2018-07-13T12:17:48.000Z,2018-07-18T15:25:49.000Z,2018-08-02T12:17:00.000Z,2018-07-13T12:17:48.000Z,Y,2018-07-18T15:25:00.000Z,,CLOSED,CLOSED,18-00373794,STANDARD,1441 S STREET NW,397085.49,138493.52,38.91430272,-77.03360577,WASHINGTON,DC,20009,226171,2
-77.016422670805284,38.94694168708439,377,S0311,Rodent Inspection and Treatment,DOH- Department Of Health,DOH,1,2018-07-19T12:53:15.000Z,,2018-08-08T12:53:00.000Z,2018-07-19T12:53:15.000Z,Y,,,OPEN,OPEN,18-00386857,STANDARD,,398576.57,142115.49,38.946933890102,-77.0164203792845,,,20011,,4
-76.992451747964296,38.891554619901683,378,S0311,Rodent Inspection and Treatment,DOH- Department Of Health,DOH,1,2018-07-11T13:28:18.000Z,,2018-07-31T13:28:00.000Z,2018-07-11T13:28:18.000Z,Y,,,OPEN,OPEN,18-00368475,STANDARD,121 10TH STREET NE,400655.04,135966.96,38.89154717,-76.99244947,WASHINGTON,DC,20002,71757,6
-77.013853085870736,38.916136939463144,379,S0311,Rodent Inspection and Treatment,DOH- Department Of Health,DOH,1,2018-06-27T06:42:07.000Z,2018-07-18T15:32:34.000Z,2018-07-17T17:00:00.000Z,2018-06-27T06:42:07.000Z,Y,2018-07-18T15:32:00.000Z,,CLOSED,CLOSED,18-00336973,STANDARD,154 THOMAS STREET NW,398798.8,138695.86,38.91612948,-77.0138508,WASHINGTON,DC,20001,227426,5
-77.034260728717513,38.911743064522852,380,S0311,Rodent Inspection and Treatment,DOH- Department Of Health,DOH,1,2018-07-03T14:26:44.000Z,2018-07-13T15:06:37.000Z,2018-07-24T14:26:00.000Z,2018-07-03T14:26:44.000Z,Y,2018-07-13T15:06:00.000Z,,CLOSED,CLOSED,18-00351677,STANDARD,1458 CORCORAN STREET NW,397028.78,138208.57,38.91173561,-77.03425843,WASHINGTON,DC,20009,218296,2
-77.040329377796496,38.921148260588446,381,S0311,Rodent Inspection and Treatment,DOH- Department Of Health,DOH,1,2018-07-10T09:01:25.000Z,2018-07-12T15:03:44.000Z,2018-07-30T09:01:00.000Z,2018-07-10T09:01:25.000Z,Y,2018-07-12T15:04:00.000Z,,CLOSED,CLOSED,18-00364237,STANDARD,2332 ONTARIO ROAD NW,396502.91,139252.84,38.9211408,-77.04032708,WASHINGTON,DC,20009,218132,1
-76.954567710627529,38.894198184237659,382,S0311,Rodent Inspection and Treatment,DOH- Department Of Health,DOH,1,2018-07-05T13:20:52.000Z,2018-07-12T16:33:05.000Z,2018-07-25T13:20:00.000Z,2018-07-05T13:20:52.000Z,Y,2018-07-12T16:33:00.000Z,,CLOSED,CLOSED,18-00355030,STANDARD,317 36TH STREET NE,403941.49,136261.37,38.89419073,-76.95456544,WASHINGTON,DC,20019,39362,7
-77.017918421025598,38.953446253392066,383,S0311,Rodent Inspection and Treatment,DOH- Department Of Health,DOH,1,2018-06-27T11:15:16.000Z,2018-07-06T16:11:10.000Z,2018-07-18T11:15:00.000Z,2018-06-27T11:15:16.000Z,Y,2018-07-06T16:11:00.000Z,,CLOSED,CLOSED,18-00337836,STANDARD,5204 4TH STREET NW,398447.05,142837.58,38.95343879,-77.01791613,WASHINGTON,DC,20011,248640,4
-76.974696791483339,38.923262501155882,384,S0311,Rodent Inspection and Treatment,DOH- Department Of Health,DOH,1,2018-06-26T13:12:21.000Z,2018-07-18T15:10:04.000Z,2018-07-17T13:12:00.000Z,2018-06-26T13:12:21.000Z,Y,2018-07-18T15:10:00.000Z,,CLOSED,CLOSED,18-00335506,STANDARD,2007 DOUGLAS STREET NE,402194.38,139487.07,38.92325504,-76.97469451,WASHINGTON,DC,20018,53040,5
-77.02318308112244,38.914242358953025,385,S0311,Rodent Inspection and Treatment,DOH- Department Of Health,DOH,1,2018-06-25T10:39:36.000Z,2018-06-27T07:23:38.000Z,2018-07-16T10:39:00.000Z,2018-06-25T10:39:36.000Z,Y,2018-06-27T07:23:00.000Z,,CLOSED,CLOSED,18-00331741,STANDARD,1800 8TH STREET NW,397989.61,138485.71,38.9142349,-77.02318079,WASHINGTON,DC,20001,239877,1
-77.031372957472072,38.928907441890772,386,S0311,Rodent Inspection and Treatment,DOH- Department Of Health,DOH,1,2018-07-12T13:26:23.000Z,2018-07-17T07:04:13.000Z,2018-08-01T13:26:00.000Z,2018-07-12T13:26:23.000Z,Y,2018-07-17T07:04:00.000Z,,CLOSED,CLOSED,18-00371399,STANDARD,1349 IRVING STREET NW,397279.89,140113.87,38.92889998,-77.03137066,WASHINGTON,DC,20010,231361,1
-77.020612324326819,38.939661515846616,387,S0311,Rodent Inspection and Treatment,DOH- Department Of Health,DOH,1,2018-06-25T23:23:46.000Z,2018-07-02T16:15:26.000Z,2018-07-16T17:00:00.000Z,2018-06-25T23:23:46.000Z,Y,2018-07-02T16:15:00.000Z,,CLOSED,CLOSED,18-00333846,STANDARD,544 SHEPHERD STREET NW,398213.2,141307.4,38.93965405,-77.02061003,WASHINGTON,DC,20011,247694,4
-77.054301117621591,38.900446562942093,388,S0311,Rodent Inspection and Treatment,DOH- Department Of Health,DOH,1,2018-06-26T12:43:21.000Z,2018-07-02T16:17:36.000Z,2018-07-17T12:43:00.000Z,2018-06-26T12:43:21.000Z,Y,2018-07-02T16:17:00.000Z,,CLOSED,CLOSED,18-00335355,STANDARD,2528 I STREET NW,395289.94,136955.41,38.90043911,-77.05429882,WASHINGTON,DC,20037,273944,2
-77.031313520168624,38.923557418038719,389,S0311,Rodent Inspection and Treatment,DOH- Department Of Health,DOH,1,2018-07-03T14:08:28.000Z,2018-07-11T07:18:56.000Z,2018-07-24T14:08:00.000Z,2018-07-03T14:08:28.000Z,Y,2018-07-11T07:19:00.000Z,,CLOSED,CLOSED,18-00351586,STANDARD,1354 EUCLID STREET NW,397284.84,139519.97,38.92354996,-77.03131123,WASHINGTON,DC,20009,284003,1
-77.03480861937696,38.917609221694228,390,S0311,Rodent Inspection and Treatment,DOH- Department Of Health,DOH,1,2018-07-13T13:27:16.000Z,2018-07-18T15:18:40.000Z,2018-08-02T13:27:00.000Z,2018-07-13T13:27:16.000Z,Y,2018-07-18T15:19:00.000Z,,CLOSED,CLOSED,18-00374075,STANDARD,2018 15TH STREET NW,396981.51,138859.78,38.91760177,-77.03480632,WASHINGTON,DC,20009,242045,1
-77.011941551704183,38.908816703131336,391,S0311,Rodent Inspection and Treatment,DOH- Department Of Health,DOH,1,2018-07-11T14:54:49.000Z,2018-07-17T13:04:13.000Z,2018-07-31T14:54:00.000Z,2018-07-11T14:54:49.000Z,Y,2018-07-17T13:04:00.000Z,,CLOSED,CLOSED,18-00368880,STANDARD,1405 1ST STREET NW,398964.47,137883.23,38.90880925,-77.01193926,WASHINGTON,DC,20001,236924,5
-76.981481712731039,38.885146186471367,392,S0311,Rodent Inspection and Treatment,DOH- Department Of Health,DOH,1,2018-06-28T16:00:44.000Z,2018-07-16T13:47:24.000Z,2018-07-19T16:00:00.000Z,2018-06-28T16:00:44.000Z,Y,2018-07-16T13:47:00.000Z,,CLOSED,CLOSED,18-00342001,STANDARD,1625 C STREET SE,401606.88,135255.71,38.88513873,-76.98147944,WASHINGTON,DC,20003,59255,6
-76.998602029877063,38.960909163190081,393,S0311,Rodent Inspection and Treatment,DOH- Department Of Health,DOH,1,2018-07-18T13:25:33.000Z,,2018-08-07T13:25:00.000Z,2018-07-18T13:25:33.000Z,Y,,,OPEN,OPEN,18-00384414,STANDARD,465 RIGGS ROAD NE,400121.36,143665.88,38.9609017,-76.99859974,WASHINGTON,DC,20011,18479,4
-77.03432553724771,38.921824181383499,394,S0311,Rodent Inspection and Treatment,DOH- Department Of Health,DOH,1,2018-06-25T12:03:31.000Z,2018-06-27T15:08:03.000Z,2018-07-16T12:03:00.000Z,2018-06-25T12:03:31.000Z,Y,2018-06-27T15:08:00.000Z,,CLOSED,CLOSED,18-00332159,STANDARD,1447 CHAPIN STREET NW,397023.58,139327.66,38.92181672,-77.03432324,WASHINGTON,DC,20009,218809,1
-76.994471715231185,38.828982955793201,395,S0311,Rodent Inspection and Treatment,DOH- Department Of Health,DOH,1,2018-07-05T15:13:07.000Z,2018-07-12T15:43:11.000Z,2018-07-25T15:13:00.000Z,2018-07-05T15:13:07.000Z,Y,2018-07-12T15:43:00.000Z,,CLOSED,CLOSED,18-00355608,STANDARD,805 CHESAPEAKE STREET SE,400480.22,129021.04,38.82897552,-76.99446944,WASHINGTON,DC,20032,79781,8
-77.053345209611024,38.928215386456529,396,S0311,Rodent Inspection and Treatment,DOH- Department Of Health,DOH,1,2018-06-26T13:08:47.000Z,2018-07-03T14:38:48.000Z,2018-07-17T13:08:00.000Z,2018-06-26T13:08:47.000Z,Y,2018-07-03T14:38:00.000Z,,CLOSED,CLOSED,18-00335482,STANDARD,2331 CATHEDRAL AVENUE NW,395374.66,140037.93,38.92820793,-77.05334291,WASHINGTON,DC,20008,219215,3
-77.001811083242458,38.882876175624567,397,S0311,Rodent Inspection and Treatment,DOH- Department Of Health,DOH,1,2018-06-26T19:41:18.000Z,2018-07-10T12:55:06.000Z,2018-07-17T17:00:00.000Z,2018-06-26T19:41:18.000Z,Y,2018-07-10T12:55:00.000Z,,CLOSED,CLOSED,18-00336782,STANDARD,510 3RD STREET SE,399843.06,135003.56,38.88286873,-77.0018088,WASHINGTON,DC,20003,13686,6
-77.01896712009129,38.881482943284432,398,S0311,Rodent Inspection and Treatment,DOH- Department Of Health,DOH,1,2018-07-13T17:27:41.000Z,2018-07-20T14:17:17.000Z,2018-08-02T17:00:00.000Z,2018-07-13T17:27:41.000Z,Y,2018-07-20T14:17:00.000Z,,CLOSED,CLOSED,18-00374933,STANDARD,501 G STREET SW,398354.49,134849.07,38.88147549,-77.01896483,WASHINGTON,DC,20024,15245,6
-76.99809516655327,38.960793760267784,399,S0311,Rodent Inspection and Treatment,DOH- Department Of Health,DOH,1,2018-07-10T09:29:04.000Z,2018-07-13T09:13:28.000Z,2018-07-30T09:29:00.000Z,2018-07-10T09:29:04.000Z,Y,2018-07-13T09:15:00.000Z,,CLOSED,CLOSED,18-00364392,STANDARD,637 OGLETHORPE STREET NE,400165.29,143653.07,38.96078629,-76.99809288,WASHINGTON,DC,20011,2418,4
-77.043716592416658,38.91142128402069,400,S0311,Rodent Inspection and Treatment,DOH- Department Of Health,DOH,1,2018-07-10T09:32:41.000Z,2018-07-20T10:45:02.000Z,2018-07-30T09:32:00.000Z,2018-07-10T09:32:41.000Z,Y,2018-07-20T10:45:00.000Z,,CLOSED,CLOSED,18-00364415,STANDARD,1606 19TH STREET NW,396208.66,138173.2,38.91141383,-77.04371429,WASHINGTON,DC,20009,241037,2
-77.01994871023723,38.936675921063681,401,S0311,Rodent Inspection and Treatment,DOH- Department Of Health,DOH,1,2018-07-17T19:49:50.000Z,2018-07-20T07:13:45.000Z,2018-08-06T17:00:00.000Z,2018-07-17T19:49:50.000Z,Y,2018-07-20T07:14:00.000Z,,CLOSED,CLOSED,18-00382705,STANDARD,619 QUEBEC PLACE NW,398270.66,140975.96,38.93666846,-77.01994642,WASHINGTON,DC,20010,228450,1
-76.998336183085442,38.847524636489759,402,S0311,Rodent Inspection and Treatment,DOH- Department Of Health,DOH,1,2018-07-17T16:40:02.000Z,,2018-08-06T16:40:00.000Z,2018-07-17T16:40:02.000Z,Y,,,OPEN,OPEN,18-00382401,STANDARD,520 LEBAUM STREET SE,400144.63,131079.28,38.84751719,-76.9983339,WASHINGTON,DC,20032,11956,8
-77.036507799725769,38.91483999167783,403,S0311,Rodent Inspection and Treatment,DOH- Department Of Health,DOH,1,2018-06-26T11:58:03.000Z,2018-07-02T13:24:11.000Z,2018-07-17T11:58:00.000Z,2018-06-26T11:58:03.000Z,Y,2018-07-02T13:24:00.000Z,,CLOSED,CLOSED,18-00335145,STANDARD,,396834.03001102,138552.43001401,38.9148325352159,-77.0365055040843,,,20009,905988,2
-77.026641012220878,38.915302533450976,404,S0311,Rodent Inspection and Treatment,DOH- Department Of Health,DOH,1,2018-07-05T15:43:37.000Z,2018-07-12T14:56:57.000Z,2018-07-25T15:43:00.000Z,2018-07-05T15:43:37.000Z,Y,2018-07-12T14:57:00.000Z,,CLOSED,CLOSED,18-00355730,STANDARD,1820 VERMONT AVENUE NW,397689.75,138603.48,38.91529508,-77.02663872,WASHINGTON,DC,20001,239253,1
-76.982741613960926,38.894608958393299,405,S0311,Rodent Inspection and Treatment,DOH- Department Of Health,DOH,1,2018-07-12T09:22:23.000Z,,2018-08-01T09:22:00.000Z,2018-07-12T09:22:23.000Z,Y,,,OPEN,OPEN,18-00370230,STANDARD,1525 D STREET NE,401497.37,136306.13,38.8946015,-76.98273934,WASHINGTON,DC,20002,61265,6
-77.01474240531077,38.949910048953498,406,S0311,Rodent Inspection and Treatment,DOH- Department Of Health,DOH,1,2018-07-05T09:17:25.000Z,2018-07-13T10:35:47.000Z,2018-07-25T09:17:00.000Z,2018-07-05T09:17:25.000Z,Y,2018-07-11T09:19:00.000Z,,CLOSED,CLOSED,18-00353853,STANDARD,214 EMERSON STREET NW,398722.28,142444.98,38.94990259,-77.01474011,WASHINGTON,DC,20011,244552,4
-76.990097437641012,38.954358934573079,407,S0311,Rodent Inspection and Treatment,DOH- Department Of Health,DOH,1,2018-07-05T09:22:31.000Z,,2018-07-25T09:22:00.000Z,2018-07-05T09:22:31.000Z,Y,,,OPEN,OPEN,18-00353875,STANDARD,5122 12TH STREET NE,400858.53,142938.79,38.95435147,-76.99009515,WASHINGTON,DC,20011,13001,5
-77.016399423472365,38.974756846095076,408,S0311,Rodent Inspection and Treatment,DOH- Department Of Health,DOH,1,2018-07-10T09:56:17.000Z,2018-07-13T09:23:43.000Z,2018-07-30T09:56:00.000Z,2018-07-10T09:56:17.000Z,Y,2018-07-13T09:26:00.000Z,,CLOSED,CLOSED,18-00364560,STANDARD,300 CARROLL STREET NW,398579.14,145203.23,38.97474938,-77.01639713,WASHINGTON,DC,20012,284548,4
-76.988860825304627,38.906863232526469,409,S0311,Rodent Inspection and Treatment,DOH- Department Of Health,DOH,1,2018-06-27T07:48:22.000Z,2018-07-18T14:58:23.000Z,2018-07-17T17:00:00.000Z,2018-06-27T07:48:22.000Z,Y,2018-07-18T14:58:00.000Z,,CLOSED,CLOSED,18-00337057,STANDARD,1111 PENN STREET NE,400966.36,137666.37,38.90685578,-76.98885854,WASHINGTON,DC,20002,74136,5
-76.99356557561623,38.958145711019668,410,S0311,Rodent Inspection and Treatment,DOH- Department Of Health,DOH,1,2018-07-16T10:18:17.000Z,2018-07-20T08:49:33.000Z,2018-08-03T10:18:00.000Z,2018-07-16T10:18:17.000Z,Y,2018-07-20T08:52:00.000Z,,CLOSED,CLOSED,18-00377656,STANDARD,834 OGLETHORPE STREET NE,400557.89,143359.13,38.95813825,-76.99356329,WASHINGTON,DC,20011,81199,4
-76.991055226312312,38.947097711567572,411,S0311,Rodent Inspection and Treatment,DOH- Department Of Health,DOH,1,2018-07-13T17:44:58.000Z,2018-07-17T12:54:28.000Z,2018-08-02T17:00:00.000Z,2018-07-13T17:44:58.000Z,Y,2018-07-17T12:54:00.000Z,,CLOSED,CLOSED,18-00374962,STANDARD,1045 CRITTENDEN STREET NE,400775.59,142132.72,38.94709025,-76.99105294,WASHINGTON,DC,20017,74865,5
-77.068990099178649,38.913206528788429,412,S0311,Rodent Inspection and Treatment,DOH- Department Of Health,DOH,1,2018-07-19T18:21:55.000Z,,2018-08-08T17:00:00.000Z,2018-07-19T18:21:55.000Z,Y,,,OPEN,OPEN,18-00387957,STANDARD,1681 35TH STREET NW,394016.84,138372.73,38.91319907,-77.06898779,WASHINGTON,DC,20007,273390,2
-77.067986588342364,38.906405815149441,413,S0311,Rodent Inspection and Treatment,DOH- Department Of Health,DOH,1,2018-07-17T16:24:26.000Z,,2018-08-06T16:24:00.000Z,2018-07-17T16:24:26.000Z,Y,,,OPEN,OPEN,18-00382329,STANDARD,1238 34TH STREET NW,394103.31,137617.73,38.90639836,-77.06798428,WASHINGTON,DC,20007,272209,2
-77.038744361831149,38.911393491302348,414,S0311,Rodent Inspection and Treatment,DOH- Department Of Health,DOH,1,2018-06-26T08:36:25.000Z,2018-07-02T13:25:25.000Z,2018-07-16T17:00:00.000Z,2018-06-26T08:36:25.000Z,Y,2018-07-02T13:25:00.000Z,,CLOSED,CLOSED,18-00334168,STANDARD,1604 17TH STREET NW,396639.9,138169.92,38.91138604,-77.03874207,WASHINGTON,DC,20009,241674,2
-77.003333037074611,38.922777662047693,415,S0311,Rodent Inspection and Treatment,DOH- Department Of Health,DOH,1,2018-07-06T07:22:31.000Z,,2018-07-25T17:00:00.000Z,2018-07-06T07:22:31.000Z,Y,,,OPEN,OPEN,18-00356546,STANDARD,201 CROMWELL TERRACE NE,399711.17,139432.95,38.9227702,-77.00333075,WASHINGTON,DC,20002,52910,5
-77.009687764792929,38.920020760403567,416,S0311,Rodent Inspection and Treatment,DOH- Department Of Health,DOH,1,2018-07-11T21:13:39.000Z,2018-07-17T12:56:33.000Z,2018-07-31T17:00:00.000Z,2018-07-11T21:13:39.000Z,Y,2018-07-17T12:56:00.000Z,,CLOSED,CLOSED,18-00369696,STANDARD,14 ADAMS STREET NW,399160.08,139126.95,38.9200133,-77.00968548,WASHINGTON,DC,20001,228049,5
-76.980487303359936,38.865203319508311,417,S0311,Rodent Inspection and Treatment,DOH- Department Of Health,DOH,1,2018-06-27T06:43:36.000Z,2018-07-12T08:21:34.000Z,2018-07-17T17:00:00.000Z,2018-06-27T06:43:36.000Z,Y,2018-07-12T08:21:00.000Z,,CLOSED,CLOSED,18-00336977,STANDARD,1642 U STREET SE,401693.63,133041.92,38.86519587,-76.98048503,WASHINGTON,DC,20020,58688,8
-77.062604397629357,38.906932748926636,418,S0311,Rodent Inspection and Treatment,DOH- Department Of Health,DOH,1,2018-07-18T10:42:43.000Z,,2018-08-07T10:42:00.000Z,2018-07-18T10:42:43.000Z,Y,,,OPEN,OPEN,18-00383616,STANDARD,3139 N STREET NW,394570.18,137675.89,38.9069253,-77.06260209,WASHINGTON,DC,20007,223434,2
-76.996404539708521,38.884470168371763,419,S0311,Rodent Inspection and Treatment,DOH- Department Of Health,DOH,1,2018-07-18T20:57:29.000Z,,2018-08-07T17:00:00.000Z,2018-07-18T20:57:29.000Z,Y,,,OPEN,OPEN,18-00385554,STANDARD,661 PENNSYLVANIA AVENUE SE,400312.15,135180.51,38.88446272,-76.99640226,WASHINGTON,DC,20003,280104,6
-77.051676432375828,38.902136010162934,420,S0311,Rodent Inspection and Treatment,DOH- Department Of Health,DOH,1,2018-07-02T23:28:54.000Z,2018-07-05T15:12:57.000Z,2018-07-23T17:00:00.000Z,2018-07-02T23:28:54.000Z,Y,2018-07-05T15:13:00.000Z,,CLOSED,CLOSED,18-00349773,STANDARD,950 24TH STREET NW,395517.72,137142.82,38.90212856,-77.05167413,WASHINGTON,DC,20037,274741,2
-77.031313520168624,38.923557418038719,421,S0311,Rodent Inspection and Treatment,DOH- Department Of Health,DOH,1,2018-07-03T14:01:38.000Z,2018-07-11T07:17:08.000Z,2018-07-24T14:01:00.000Z,2018-07-03T14:01:38.000Z,Y,2018-07-11T07:17:00.000Z,,CLOSED,CLOSED,18-00351563,STANDARD,1354 EUCLID STREET NW,397284.84,139519.97,38.92354996,-77.03131123,WASHINGTON,DC,20009,284003,1
-76.983037520470106,38.894608551312402,422,S0311,Rodent Inspection and Treatment,DOH- Department Of Health,DOH,1,2018-07-12T12:37:53.000Z,2018-07-20T11:26:55.000Z,2018-08-01T12:37:00.000Z,2018-07-12T12:37:53.000Z,Y,2018-07-20T11:26:00.000Z,,CLOSED,CLOSED,18-00371170,STANDARD,1515 D STREET NE,401471.7,136306.08,38.8946011,-76.98303524,WASHINGTON,DC,20002,61898,6
-76.992434463200439,38.891502910717605,423,S0311,Rodent Inspection and Treatment,DOH- Department Of Health,DOH,1,2018-07-08T08:01:39.000Z,2018-07-17T11:51:44.000Z,2018-07-26T17:00:00.000Z,2018-07-08T08:01:39.000Z,Y,2018-07-17T11:51:00.000Z,,CLOSED,CLOSED,18-00360281,STANDARD,119 10TH STREET NE,400656.54,135961.22,38.89149546,-76.99243218,WASHINGTON,DC,20002,72321,6
-77.034903748483984,38.965430338440534,424,S0311,Rodent Inspection and Treatment,DOH- Department Of Health,DOH,1,2018-06-27T00:16:03.000Z,2018-07-06T11:24:37.000Z,2018-07-17T17:00:00.000Z,2018-06-27T00:16:03.000Z,Y,2018-07-06T11:24:00.000Z,,CLOSED,CLOSED,18-00336935,STANDARD,1400 - 1599 BLOCK OF RITTENHOUSE STREET NW,396975.29,144168.35,38.9654225384252,-77.0349014500733,WASHINGTON,DC,20011,811365,4
-77.064004726443784,38.907036487039541,425,S0311,Rodent Inspection and Treatment,DOH- Department Of Health,DOH,1,2018-06-27T07:01:22.000Z,,2018-07-17T17:00:00.000Z,2018-06-27T07:01:22.000Z,Y,,,OPEN,OPEN,18-00336990,STANDARD,3223 N STREET NW,394448.73,137687.49,38.90702903,-77.06400242,WASHINGTON,DC,20007,275840,2
-77.059464554026064,38.911695660978928,426,S0311,Rodent Inspection and Treatment,DOH- Department Of Health,DOH,1,2018-06-25T15:08:28.000Z,2018-06-28T15:17:02.000Z,2018-07-16T15:08:00.000Z,2018-06-25T15:08:28.000Z,Y,2018-06-28T15:17:00.000Z,,CLOSED,CLOSED,18-00333016,STANDARD,1638 30TH STREET NW,394842.86,138204.43,38.91168821,-77.05946225,WASHINGTON,DC,20007,277109,2
-76.988834614620089,38.901956830446125,427,S0311,Rodent Inspection and Treatment,DOH- Department Of Health,DOH,1,2018-07-11T08:43:15.000Z,,2018-07-30T17:00:00.000Z,2018-07-11T08:43:15.000Z,Y,,,OPEN,OPEN,18-00367096,STANDARD,1227 FLORIDA AVENUE NE,400968.7,137121.72,38.90194938,-76.98883233,WASHINGTON,DC,20002,70807,6
-77.022347161947607,38.939397163904935,428,S0311,Rodent Inspection and Treatment,DOH- Department Of Health,DOH,1,2018-07-09T21:56:22.000Z,2018-07-17T11:20:52.000Z,2018-07-27T17:00:00.000Z,2018-07-09T21:56:22.000Z,Y,2018-07-17T11:20:00.000Z,,CLOSED,CLOSED,18-00363699,STANDARD,3922 NEW HAMPSHIRE AVENUE NW,398062.79,141278.09,38.9393897,-77.02234487,WASHINGTON,DC,20011,249647,4
-77.031506874744565,38.935478966155237,429,S0311,Rodent Inspection and Treatment,DOH- Department Of Health,DOH,1,2018-07-09T21:57:31.000Z,2018-07-19T08:43:04.000Z,2018-07-27T17:00:00.000Z,2018-07-09T21:57:31.000Z,Y,2018-07-19T08:43:00.000Z,,CLOSED,CLOSED,18-00363700,STANDARD,1351 PARKWOOD PLACE NW,397268.53,140843.37,38.93547151,-77.03150458,WASHINGTON,DC,20010,230210,1
-77.030868952931115,38.935791814532649,430,S0311,Rodent Inspection and Treatment,DOH- Department Of Health,DOH,1,2018-06-22T12:58:30.000Z,2018-06-25T14:57:48.000Z,2018-07-13T12:58:00.000Z,2018-06-22T12:58:30.000Z,Y,2018-06-25T14:57:00.000Z,,CLOSED,CLOSED,18-00327702,STANDARD,HOLMEAD PLACE NW AND PERRY PLACE NW,397323.85001147,140878.08000017,38.9357843536366,-77.0308666577375,WASHINGTON,DC,20010,907012,1
-76.99783489206385,38.887786369352575,431,S0311,Rodent Inspection and Treatment,DOH- Department Of Health,DOH,1,2018-07-16T14:40:47.000Z,,2018-08-03T14:40:00.000Z,2018-07-16T14:40:47.000Z,Y,,,OPEN,OPEN,18-00378955,STANDARD,616 INDEPENDENCE AVENUE SE,400188.04,135548.63,38.88777892,-76.99783261,WASHINGTON,DC,20003,4032,6
-77.005773476795468,38.916446423820979,432,S0311,Rodent Inspection and Treatment,DOH- Department Of Health,DOH,1,2018-06-26T14:52:45.000Z,2018-07-18T15:35:26.000Z,2018-07-17T14:52:00.000Z,2018-06-26T14:52:45.000Z,Y,2018-07-18T15:35:00.000Z,,CLOSED,CLOSED,18-00336004,STANDARD,122 TODD PLACE NE,399499.5,138730.14,38.91643897,-77.00577119,WASHINGTON,DC,20002,71082,5
-76.940972583462596,38.870782813638712,433,S0311,Rodent Inspection and Treatment,DOH- Department Of Health,DOH,1,2018-07-17T13:10:22.000Z,2018-07-18T15:55:36.000Z,2018-08-06T13:10:00.000Z,2018-07-17T13:10:22.000Z,Y,2018-07-18T15:55:00.000Z,,CLOSED,CLOSED,18-00381509,STANDARD,4212 BARKER LANE SE,405122.56,133662.76,38.87077536,-76.94097032,WASHINGTON,DC,20019,25409,7
-76.922059202425586,38.883665354301378,434,S0311,Rodent Inspection and Treatment,DOH- Department Of Health,DOH,1,2018-07-16T15:17:55.000Z,,2018-08-03T15:17:00.000Z,2018-07-16T15:17:55.000Z,Y,,,OPEN,OPEN,18-00379150,STANDARD,5516 CALL PLACE SE,406762.63,135094.05,38.8836579,-76.92205694,WASHINGTON,DC,20019,8138,7
-77.003571193123804,38.902522673586638,435,S0311,Rodent Inspection and Treatment,DOH- Department Of Health,DOH,1,2018-07-09T10:27:29.000Z,,2018-07-27T10:27:00.000Z,2018-07-09T10:27:29.000Z,Y,,,OPEN,OPEN,18-00361697,STANDARD,K STREET NE AND 2ND STREET NE,399690.43001367,137184.47999674,38.9025152183804,-77.0035689083378,WASHINGTON,DC,20002,902166,6
-76.981994436331192,38.885836939397855,436,S0311,Rodent Inspection and Treatment,DOH- Department Of Health,DOH,1,2018-07-04T10:47:47.000Z,2018-07-13T14:16:19.000Z,2018-07-24T17:00:00.000Z,2018-07-04T10:47:47.000Z,Y,2018-07-13T14:16:00.000Z,,CLOSED,CLOSED,18-00352849,STANDARD,244 16TH STREET SE,401562.38,135332.38,38.88582949,-76.98199216,WASHINGTON,DC,20003,47028,6
-77.023077423531674,38.918399996205672,437,S0311,Rodent Inspection and Treatment,DOH- Department Of Health,DOH,1,2018-07-17T14:41:07.000Z,2018-07-20T07:32:01.000Z,2018-08-06T14:41:00.000Z,2018-07-17T14:41:07.000Z,Y,2018-07-20T07:32:00.000Z,,CLOSED,CLOSED,18-00381907,STANDARD,2112 8TH STREET NW,397998.89,138947.24,38.91839221,-77.02307513,WASHINGTON,DC,20001,284190,1
-77.068430261440241,38.906074679328817,438,S0311,Rodent Inspection and Treatment,DOH- Department Of Health,DOH,1,2018-07-15T11:56:54.000Z,2018-07-20T11:07:51.000Z,2018-08-02T17:00:00.000Z,2018-07-15T11:56:54.000Z,Y,2018-07-20T11:07:00.000Z,,CLOSED,CLOSED,18-00376474,STANDARD,3415 PROSPECT STREET NW,394064.8,137581,38.90606723,-77.06842796,WASHINGTON,DC,20007,272206,2
-76.943262113591729,38.88449535989453,439,S0311,Rodent Inspection and Treatment,DOH- Department Of Health,DOH,1,2018-07-17T15:52:00.000Z,2018-07-18T15:50:36.000Z,2018-08-06T15:52:00.000Z,2018-07-17T15:52:00.000Z,Y,2018-07-18T15:50:00.000Z,,CLOSED,CLOSED,18-00382206,STANDARD,412 BURBANK STREET SE,404922.93,135184.83,38.88448791,-76.94325985,WASHINGTON,DC,20019,26581,7
-77.02468009728652,38.905946538409822,440,S0311,Rodent Inspection and Treatment,DOH- Department Of Health,DOH,1,2018-07-09T15:50:42.000Z,2018-07-16T13:36:17.000Z,2018-07-27T15:50:00.000Z,2018-07-09T15:50:42.000Z,Y,2018-07-16T13:36:00.000Z,,CLOSED,CLOSED,18-00363105,STANDARD,915 M STREET NW,397859.53,137564.84,38.90593908,-77.02467781,WASHINGTON,DC,20001,239776,2
-77.033279969529261,38.914687993961095,441,S0311,Rodent Inspection and Treatment,DOH- Department Of Health,DOH,1,2018-07-17T10:13:15.000Z,,2018-08-06T10:13:00.000Z,2018-07-17T10:13:15.000Z,Y,,,OPEN,OPEN,18-00380710,STANDARD,1422 SWANN STREET NW,397113.96,138535.45,38.91468054,-77.03327767,WASHINGTON,DC,20009,240069,2
-77.010405810005508,38.91279286226937,442,S0311,Rodent Inspection and Treatment,DOH- Department Of Health,DOH,1,2018-06-26T17:03:16.000Z,2018-07-18T15:27:54.000Z,2018-07-17T17:00:00.000Z,2018-06-26T17:03:16.000Z,Y,2018-07-18T15:27:00.000Z,,CLOSED,CLOSED,18-00336538,STANDARD,37 R STREET NW,399097.72,138324.6,38.91278541,-77.01040352,WASHINGTON,DC,20001,226866,5
-76.99640432144102,38.904822595942385,443,S0311,Rodent Inspection and Treatment,DOH- Department Of Health,DOH,1,2018-06-29T11:39:54.000Z,,2018-07-20T11:39:00.000Z,2018-06-29T11:39:54.000Z,Y,,,OPEN,OPEN,18-00343904,STANDARD,1134 7TH STREET NE,400312.08,137439.79,38.90481514,-76.99640204,WASHINGTON,DC,20002,73235,6
-76.996403749163761,38.904739809164802,444,S0311,Rodent Inspection and Treatment,DOH- Department Of Health,DOH,1,2018-06-29T11:44:33.000Z,2018-07-19T10:37:24.000Z,2018-07-20T11:44:00.000Z,2018-06-29T11:44:33.000Z,Y,2018-07-19T10:37:00.000Z,,CLOSED,CLOSED,18-00343924,STANDARD,1130 7TH STREET NE,400312.13,137430.6,38.90473235,-76.99640147,WASHINGTON,DC,20002,73150,6
-77.026989874202343,38.927645750916739,445,S0311,Rodent Inspection and Treatment,DOH- Department Of Health,DOH,1,2018-07-08T10:32:33.000Z,2018-07-11T07:04:45.000Z,2018-07-26T17:00:00.000Z,2018-07-08T10:32:33.000Z,Y,2018-07-11T07:05:00.000Z,,CLOSED,CLOSED,18-00360328,STANDARD,2931 11TH STREET NW,397659.9,139973.69,38.92763829,-77.02698758,WASHINGTON,DC,20001,231485,1
-77.00350777838095,38.914082997020635,446,S0311,Rodent Inspection and Treatment,DOH- Department Of Health,DOH,1,2018-07-19T20:26:26.000Z,,2018-08-08T17:00:00.000Z,2018-07-19T20:26:26.000Z,Y,,,OPEN,OPEN,18-00388058,STANDARD,,399695.97999767,138467.77001393,38.9140755394803,-77.0035054929085,,,20002,901950,5
-77.01577675359863,38.9139793792557,447,S0311,Rodent Inspection and Treatment,DOH- Department Of Health,DOH,1,2018-07-19T20:28:09.000Z,,2018-08-08T17:00:00.000Z,2018-07-19T20:28:09.000Z,Y,,,OPEN,OPEN,18-00388061,STANDARD,,398631.93001268,138456.37999792,38.9139719221938,-77.0157744643688,,,20001,906761,5
-77.029707408728669,38.939216800319556,448,S0311,Rodent Inspection and Treatment,DOH- Department Of Health,DOH,1,2018-07-21T15:16:21.000Z,,2018-08-09T17:00:00.000Z,2018-07-21T15:16:21.000Z,Y,,,OPEN,OPEN,18-00391085,STANDARD,3900 - 3999 BLOCK OF 13TH STREET NW,397424.68,141258.25,38.9392090053894,-77.0297051135429,WASHINGTON,DC,20011,806001,4
-77.022471342568295,38.932296617113344,449,S0311,Rodent Inspection and Treatment,DOH- Department Of Health,DOH,1,2018-06-25T08:04:07.000Z,2018-06-27T07:21:01.000Z,2018-07-13T17:00:00.000Z,2018-06-25T08:04:07.000Z,Y,2018-06-27T07:21:00.000Z,,CLOSED,CLOSED,18-00331175,STANDARD,643 MORTON STREET NW,398051.83,140489.87,38.93228916,-77.02246905,WASHINGTON,DC,20010,228843,1
-76.989949736817366,38.893172335187032,450,S0311,Rodent Inspection and Treatment,DOH- Department Of Health,DOH,1,2018-07-06T10:49:33.000Z,2018-07-17T11:49:56.000Z,2018-07-26T10:49:00.000Z,2018-07-06T10:49:33.000Z,Y,2018-07-17T11:49:00.000Z,,CLOSED,CLOSED,18-00357292,STANDARD,245 12TH STREET NE,400872.08,136146.56,38.89316488,-76.98994746,WASHINGTON,DC,20002,46882,6
-77.02468009728652,38.905946538409822,451,S0311,Rodent Inspection and Treatment,DOH- Department Of Health,DOH,1,2018-06-22T11:16:30.000Z,2018-07-02T11:07:42.000Z,2018-07-13T11:16:00.000Z,2018-06-22T11:16:30.000Z,Y,2018-07-02T11:07:00.000Z,,CLOSED,CLOSED,18-00327283,STANDARD,915 M STREET NW,397859.53,137564.84,38.90593908,-77.02467781,WASHINGTON,DC,20001,239776,2
